id,outcode,longitude,latitude,northings,eastings,admin_district,parish,admin_county,admin_ward,country
23,BN91,0,0,,,,England,,,
53,EH77,0,0,,,,Scotland,,,
268,S94,0,0,,,,England,,,
279,IM3,0,0,,,,Isle of Man,,,
460,GY4,0,0,,,,Channel Islands,,,
429,IM5,0,0,,,,Isle of Man,,,
678,JE4,0,0,,,,Channel Islands,,,
830,GY9,0,0,,,,Channel Islands,,,
803,KW3,-3.28044508108108,58.3064742972973,936035,325061,Highland,,,Wick and East Caithness,Scotland
992,JE2,0,0,,,,Channel Islands,,,
1043,IM8,0,0,,,,Isle of Man,,,
1113,GY1,0,0,,,,Channel Islands,,,
1127,KA9,-4.60533346136364,55.4972294363636,625689,235521,South Ayrshire,,,Prestwick,Kyle,Troon,Scotland
1271,GY2,0,0,,,,Channel Islands,,,
1522,IM99,0,0,,,,Isle of Man,,,
1649,JE3,0,0,,,,Channel Islands,,,
1768,KW2,-3.164491,58.3482575,940563,331937,Highland,,,Wick and East Caithness,Scotland
1705,GY5,0,0,,,,Channel Islands,,,
1772,SR43,0,0,,,,England,,,
1716,GY10,0,0,,,,Channel Islands,,,
1787,GY8,0,0,,,,Channel Islands,,,
1162,PH17,-4.37605553846154,56.6861204615385,757458,254556,Perth and Kinross,,,Highland,Scotland
2114,PO24,0,0,,,,England,,,
2017,IM4,0,0,,,,Isle of Man,,,
2213,GY7,0,0,,,,Channel Islands,,,
2228,IM1,0,0,,,,Isle of Man,,,
2186,JE1,0,0,,,,Channel Islands,,,
2280,IM6,0,0,,,,Isle of Man,,,
2438,KW7,-3.5017754,58.1868018,922981,311795,Highland,,,Wick and East Caithness,Scotland
1185,PA73,-6.18361616666667,56.4966395,741686,142613,Argyll and Bute,,,Oban South and the Isles,Scotland
2461,IM2,0,0,,,,Isle of Man,,,
20,M32,-2.30957922571001,53.4509170702542,394950,379537,Trafford,Trafford, unparished area,,Gorse Hill,Longford,Stretford,Priory,England
2613,GY3,0,0,,,,Channel Islands,,,
262,EH40,-2.66212331818182,55.9907587727272,677730,358792,East Lothian,,,Dunbar and East Linton,North Berwick Coastal,Scotland
2530,GY6,0,0,,,,Channel Islands,,,
2598,EN77,0,0,,,,England,,,
2659,IM7,0,0,,,,Isle of Man,,,
348,FK6,-3.91538069970846,56.0212401020408,682580,280710,Stirling,Falkirk,North Lanarkshire,,,Bannockburn,Denny and Banknock,Stirling West,Kilsyth,Scotland
22,KA10,-4.64772102843602,55.5504217393365,631708,233070,South Ayrshire,,,Kyle,Troon,Scotland
2802,GIR,0,0,,,,England,,,
2826,IM9,0,0,,,,Isle of Man,,,
1876,AB38,-3.22652750920245,57.4863755092024,844680,326564,Moray,,,Speyside Glenlivet,Scotland
1,SS16,0.452008861801242,51.5626221972049,187709,570056,Thurrock,Basildon,Basildon, unparished area,Thurrock, unparished area,Essex,Vange,Langdon Hills,St Martin's,Orsett,Corringham and Fobbing,Pitsea South East,Nethermayne,Laindon Park,England
890,TR24,-6.33531882352941,49.9554403529412,15152,89152,Isles of Scilly,Tresco,,Tresco,England
2828,LL19,-3.4105142929293,53.3311520993266,382509,306162,Denbighshire,Flintshire,Rhyl,Prestatyn,Llanasa,,Prestatyn Meliden,Prestatyn Central,Prestatyn East,Prestatyn South West,Rhyl South West,Ffynnongroyw,Gronant,Prestatyn North,Wales
2832,CM8,0.63734476091954,51.8054402908046,215156,581926,Braintree,Maldon,Little Braxted,Faulkbourne,Black Notley,Rivenhall,Great Totham,Cressing,Witham,Great Braxted,White Notley,Silver End,Hatfield Peverel,Wickham Bishops,Essex,Witham North,Witham Central,Great Totham,Wickham Bishops and Woodham,Silver End & Cressing,Witham West,Witham South,Hatfield Peverel & Terling,Great Notley & Black Notley,England
2842,HS4,-6.694676,57.8696368,896354,121720,Na h-Eileanan Siar,,,Na Hearadh agus Ceann a Deas nan Loch,Scotland
2852,FY8,-3.00241114578408,53.7507762639875,428734,333997,Fylde,Fylde, unparished area,Bryning-with-Warton,Westby-with-Plumptons,Saint Anne's on the Sea,Lancashire,St Johns,Ashton,Ansdell,Fairhaven,Warton and Westby,Kilnhouse,Clifton,St Leonards,Central,Heyhouses,Park,England
2893,ME99,0.5191,51.278325,156256,575794,Maidstone,Maidstone, unparished area,Kent,North,England
2863,SG18,-0.264468865047234,52.0824953252361,244103,519021,Central Bedfordshire,Astwick,Edworth,Langford,Biggleswade,Southill,Northill,Old Warden,Sutton,Dunton,,Biggleswade South,Potton,Northill,Stotfold and Langford,Biggleswade North,England
2873,S4,-1.4496887826087,53.400954264214,389487,436686,Sheffield,Sheffield, unparished area,,City,Darnall,Shiregreen and Brightside,Burngreave,England
2876,LD4,-3.556805,52.1178370892857,247757,293501,Powys,Cilmery,Llangamarch,Treflys,,Llanafanfawr,Llanwrtyd Wells,Wales
2886,SG17,-0.335624037533512,52.0346410991958,238666,514268,Central Bedfordshire,Shefford,Clophill,Meppershall,Campton and Chicksands,Southill,Haynes,Clifton,,Shefford,Arlesey,Northill,Ampthill,Houghton Conquest and Haynes,England
2894,PR6,-2.61187391650672,53.6677282706334,419201,359669,Blackburn with Darwen,Chorley,Heapey,Whittle-le-Woods,North Turton,Heath Charnock,Tockholes,Anglezarke,Anderton,Chorley, unparished area,Brindle,Clayton-le-Woods,Wheelton,Adlington,Withnell,Lancashire,Darwen West,Chorley North & Astley,Chorley East,West Pennine,Chorley North East,Adlington & Anderton,Chorley South East & Heath Charnock,Chorley North West,Clayton West & Cuerden,Buckshaw & Whittle,Clayton East, Brindle & Hoghton,England
2905,NN7,-0.928643635467981,52.2083288719212,257224,473307,Milton Keynes,Northampton,South Northamptonshire,Wellingborough,Daventry,Northampton, unparished area,Stowe IX Churches,Castlethorpe,Gayton,Hartwell,Yardley Hastings,Great Houghton,Brockhall,Ashton,Kislingbury,Althorp,Blisworth,Quinton,Nether Heyford,Little Houghton,Dodford,Brington,Earls Barton,Milton Malsor,Rothersthorpe,Courteenhall,Harlestone,Hackleton,Denton,Bugbrooke,Harpole,Cogenhoe and Whiston,Roade,Upper Heyford,Castle Ashby,Brafield on the Green,Flore,Pattishall,Weedon Bec,Norton,Grendon,Northamptonshire,Weedon,Brafield and Yardley,Newport Pagnell North & Hanslope,Ravensthorpe,Spratton,Blakesley and Cote,Earls Barton,Wollaston,Salcey,Hackleton,Blisworth and Roade,Harpole and Grange,Rushmills,Riverside,Heyfords and Bugbrooke,England
2914,TN37,0.557246471910113,50.8722852764045,111202,580022,Hastings,Rother,Westfield,Hastings, unparished area,East Sussex,Hollington,Sedlescombe & Westfield,Braybrooke,Silverhill,Gensing,Conquest,Ashdown,Wishing Tree,Central St Leonards,England
2922,NE40,-1.77431117165669,54.9659614990021,563504,414547,Gateshead,Gateshead, unparished area,,Ryton, Crookhill and Stella,Crawcrook and Greenside,Blaydon,England
2932,CF46,-3.30063125144509,51.6647728179191,197022,310141,Merthyr Tydfil,Caerphilly,Bedlinog,Treharris,Nelson,Troed-y-rhiw,Gelligaer,,Bedlinog,St. Cattwg,Treharris,Plymouth,Nelson,Wales
2950,DT1,-2.44481702664975,50.7118552017766,90341,368689,Dorset,Bradford Peverell,Dorchester,,Dorchester West,Dorchester East,Dorchester Poundbury,Charminster St Mary's,England
2980,NG14,-1.03899573818182,53.0179616963637,347172,464565,Gedling,Newark and Sherwood,Hoveringham,Calverton,Woodborough,Gunthorpe,Oxton,Stoke Bardolph,Lowdham,Epperstone,Thurgarton,Gonalston,Bulcote,Burton Joyce,Lambley,Bleasby,Caythorpe,Nottinghamshire,Calverton,Lowdham,Trent,Dover Beck,Dumbles,Trent Valley,England
103,B24,-1.8271448245614,52.5196088719298,291317,411825,Birmingham,Birmingham, unparished area,,Erdington,Pype Hayes,Gravelly Hill,Nechells,England
2935,TQ12,-3.61223913649851,50.5293456599407,71194,285825,South Hams,Teignbridge,Torbay,Ashburton,Haccombe with Combe,Kingsteignton,Abbotskerswell,Ipplepen,Ilsington,Marldon,Berry Pomeroy,Denbury and Torbryan,Stokeinteignhead,Kingskerswell,Torbay, unparished area,Bovey Tracey,Woodland,Newton Abbot,Bickington,Broadhempston,Teigngrace,Ogwell,Coffinswell,Ideford,Devon,Bushell,Ambrook,Barton with Watcombe,Marldon & Littlehempston,Ipplepen,Shaldon & Stokeinteignhead,Kerswell-with-Combe,Buckland & Milber,Ashburton & Buckfastleigh,Haytor,Bovey,Kingsteignton East,Bradley,Kingsteignton West,College,England
2944,EC3V,-0.085872571428571,51.5129759761905,181075,532921,Islington,City of London,Islington, unparished area,City of London, unparished area,,Langbourn,Lime Street,Walbrook,Cornhill,Clerkenwell,Bridge,Candlewick,England
2954,B49,-1.86732228176795,52.2177106767956,257730,409161,Wychavon,Stratford-on-Avon,Exhall,Alcester,Cookhill,Binton,Wixford,Coughton,Spernall,Sambourne,Temple Grafton,Haselor,Billesley,Aston Cantlow,Salford Priors,Inkberrow,Great Alne,Arrow with Weethley,Kinwarton,Warwickshire,Worcestershire,Studley with Mappleborough Green,Bidford West & Salford,Alcester & Rural,Studley with Sambourne,Alcester Town,Inkberrow,Kinwarton,Wotton Wawen,England
2956,LN8,-0.326433761978362,53.3748280510046,387749,511434,West Lindsey,North East Lincolnshire,East Lindsey,West Torrington,West Barkwith,Caenby,Glentham,Gautby,Thoresway,Bullington,Owmby-by-Spital,Sixhills,Walesby,South Willingham,Benniworth,Lissington,Ludford,Burgh on Bain,Linwood,West Rasen,Buslingthorpe,Snarford,Owersby,Claxby,Ranby,Stainfield,Tealby,Goltho,Hatton,Brookenby,Apley,Stainton le Vale,West Firsby,Market Stainton,Glentworth,Kirmond le Mire,Bardney,Binbrook,Toft Newton,Normanby by Spital,Wragby,Sotby,Saxby,Wold Newton,Rand,Swinhope,Faldingworth,Hemswell Cliff,Market Rasen,Langton by Wragby,Spridlington,Bishop Norton,Middle Rasen,Holton cum Beckering,Fulnetby,Hainton,North Willingham,Osgodby,Legsby,East Barkwith,Lincolnshire,Roughton,Wolds,Hemswell,Bardney,Binbrook,Tetford & Donington,Wragby,Dunholme and Welton,Market Rasen,Waddingham and Spital,Wold View,England
2974,WD17,-0.405517961937716,51.6639025570934,197328,510376,Watford,Watford, unparished area,Hertfordshire,Holywell,Nascot,Oxhey,Central,Callowland,Park,England
2936,CH41,-3.03264888137755,53.3941914948979,389091,331428,Wirral,Wirral, unparished area,,Birkenhead and Tranmere,Rock Ferry,Oxton,Seacombe,Bidston and St James,Claughton,England
2948,TW7,-0.33582793919793,51.4730101746442,176207,515679,Hounslow,Richmond upon Thames,Hounslow, unparished area,Richmond upon Thames, unparished area,,Whitton,Syon,Hounslow Central,Hounslow South,Osterley and Spring Grove,St Margarets and North Twickenham,Isleworth,England
2963,IP4,1.18021466878981,52.0604287515924,245000,618105,Ipswich,East Suffolk,Foxhall,Ipswich, unparished area,Rushmere St. Andrew,Kesgrave,Suffolk,St Margaret's,Bixley,Martlesham & Purdis Farm,Rushmere St Andrew,Rushmere,Carlford & Fynn Valley,Alexandra,Kesgrave,St John's,England
2975,NP19,-2.96377553345228,51.5883412533452,188161,333326,Newport,Llanwern,Victoria,St. Julians,Alway,Goldcliff,Caerleon,Ringland,Liswerry,Beechwood,Nash,Bishton,,Llanwern,Victoria,St. Julians,Alway,Caerleon,Ringland,Liswerry,Beechwood,Wales
2979,BA1,-2.36124722869955,51.3928139923125,166037,374961,Bath and North East Somerset,South Gloucestershire,Swainswick,Charlcombe,Bathford,Bath and North East Somerset, unparished area,Marshfield,Cold Ashton,Kelston,Batheaston,North Stoke,St. Catherine,Bitton,,Bathwick,Newbridge,Bathavon North,Weston,Boyd Valley,Lansdown,Lambridge,Bitton & Oldland Common,Kingsmead,Walcot,England
2953,WR15,-2.5690532690763,52.305304,267618,361296,Herefordshire, County of,Shropshire,Malvern Hills,Middleton on the Hill,Bockleton,Hanley,Hampton Charles,Tenbury,Laysters,Knighton on Teme,Kyre,Boraston,Stoke Bliss,Mamble,Burford,Wolferlow,Neen Sollars,Eastham,Thornbury,Rochford,Lindridge,Nash,Worcestershire,Tenbury,Cleobury Mortimer,Teme Valley,Hampton,Bromyard Bringsty,Clee,Lindridge,Leominster North & Rural,England
2964,LL22,-3.59774041588785,53.2678829501558,375735,293536,Conwy,Denbighshire,Betws yn Rhos,Kinmel Bay and Towyn,Llysfaen,Bodelwyddan,Llangernyw,Cefnmeiriadog,Llanddulas and Rhyd-y-Foel,Llanfair Talhaiarn,Abergele,Eglwysbach,Llannefydd,Llansannan,,Pentre Mawr,Trefnant,Betws yn Rhos,Towyn,Llysfaen,Kinmel Bay,Abergele Pensarn,Bodelwyddan,Llanddulas,Llangernyw,Gele,Eglwysbach,Llansannan,Wales
2972,IV44,-5.8830102,57.1087692,808675,164970,Highland,,,Eilean á Chèo,Scotland
2957,LA1,-2.7994669489645,54.0467010798816,461488,347750,Lancaster,Quernmore,Ellel,Heaton-with-Oxcliffe,Slyne-with-Hest,Lancaster, unparished area,Scotforth,Morecambe,Aldcliffe-with-Stodday,Lancashire,University & Scotforth Rural,Torrisholme,Skerton West,Westgate,Marsh,John O'Gaunt,Bulk,Castle,Bolton & Slyne,Scotforth East,Lower Lune Valley,Skerton East,Scotforth West,England
2966,BL7,-2.42238470750988,53.6317752173913,415110,372165,Blackburn with Darwen,Bolton,North Turton,Bolton, unparished area,,Astley Bridge,Bromley Cross,Crompton,West Pennine,Bradshaw,England
2976,YO21,-0.711291954751132,54.4769737767723,509839,483601,Scarborough,Hambleton,Whitby,Barnby,Glaisdale,Hutton Mulgrave,Mickleby,Danby,Egton,Ugthorpe,Commondale,Westerdale,Newholm-cum-Dunsley,Newton Mulgrave,Kildale,Eskdaleside cum Ugglebarnby,Lythe,Aislaby,Great Ayton,North Yorkshire,Danby & Mulgrave,Whitby West Cliff,Esk Valley,Mayfield,Streonshalh,Great Ayton,England
2970,PE23,0.088787116580311,53.1727243989637,365994,539711,East Lindsey,Raithby,Lusby with Winceby,Dalby,Thorpe St. Peter,Bolingbroke,Greetham with Somersby,Ashby with Scremby,Spilsby,West Keal,Great Steeping,Candlesby with Gunby,Partney,Claxby St Andrew,Halton Holegate,Little Steeping,Mavis Enderby,Stickford,Toynton St Peter,Hagworthingham,Skendleby,Orby,Welton le Marsh,East Kirkby,Firsby,East Keal,Aswardby,Harrington,Sausthorpe,Hundleby,Langton by Spilsby,Toynton All Saints,Lincolnshire,Spilsby,Halton Holegate,Hagworthingham,Willoughby with Sloothby,Croft,England
2,WC2N,-0.124910704697987,51.5090659463088,180570,530224,Westminster,Islington,Islington, unparished area,Westminster, unparished area,,Clerkenwell,St James's,England
3,PL26,-4.82742594613583,50.3449035831382,53267,198926,Cornwall,Grampound with Creed,Mevagissey,Pentewan Valley,St Austell,St. Michael Caerhays,St. Ewe,Treverbyn,St Austell Bay,St. Stephen-in-Brannel,Roche,St. Goran,Withiel,St. Dennis,St. Mewan,Luxulyan,,Penwithick and Boscoppa,St Mewan,St Dennis and Nanpean,Mevagissey,St Austell Bay,Bugle,Roseland,Roche,St Stephen-In-Brannel,Probus, Tregony and Grampound,St Austell Bethel,Lanivet and Blisland,England
4,NR21,0.85258808816121,52.8412771889169,330897,592219,Breckland,North Norfolk,King's Lynn and West Norfolk,Binham,Fakenham,Helhoughton,Tattersett,Pudding Norton,Sculthorpe,Great Snoring,South Creake,Walsingham,Fulmodeston,Stibbard,Raynham,Gunthorpe,Hempton,Little Snoring,Barsham,North Creake,Gateley,Colkirk,Kettlestone,Ryburgh,Dunton,Thursford,Hindringham,Norfolk,Upper Wensum,Walsingham,Stibbard,Lancaster North,Hermitage,Priory,Bircham with Rudhams,The Raynhams,Lancaster South,England
5,G5,-4.25183073451327,55.8476401710915,663897,259113,Glasgow City,,,Govan,Pollokshields,Southside Central,Scotland
6,IV51,-6.2438345720524,57.474966419214,850699,145685,Highland,,,Eilean á Chèo,Scotland
7,LL39,-4.01231026315789,52.7101025789474,314392,264150,Gwynedd,Arthog,,Llangelynin,Wales
8,HP22,-0.768880722477065,51.8073146043578,212792,484978,Buckinghamshire,The Lee,Weedon,Waddesdon,Wingrave with Rowsham,Oving,Ellesborough,Drayton Beauchamp,Aston Abbotts,Stoke Mandeville,Pitchcott,Wendover,Halton,Buckland,Quainton,Great and Little Kimble cum Marsh,Aston Clinton,Hulcott,Whitchurch,Berryfields,Weston Turville,Dunton,Bierton with Broughton,Hardwick,Creslow,Hoggeston,,Stone and Waddesdon,Aston Clinton and Bierton,Ridgeway East,Chiltern Ridges,Wendover, Halton and Stoke Mandeville,Great Brickhill,Wing,England
9,LD7,-3.09226798984772,52.3510563299493,273117,325699,Shropshire,Powys,Whitton,Bettws-y-Crwyn,Llangunllo,Beguildy,Clun,Llanfair Waterdine,Knighton,Stowe,Llandrindod Wells,,Llandrindod East/Llandrindod West,Llangunllo,Beguildy,Clun,Knighton,Wales,England
10,IV55,-6.60980033928572,57.4561906964286,850043,123617,Highland,,,Eilean á Chèo,Scotland
11,EH19,-3.10509704379562,55.8724086836983,664912,330948,Midlothian,,,Midlothian South,Midlothian East,Bonnyrigg,Scotland
12,OX2,-1.28073517860648,51.7658063935231,207703,449732,South Oxfordshire,Oxford,Cherwell,Vale of White Horse,Cumnor,Wytham,Gosford and Water Eaton,Elsfield,Oxford, unparished area,North Hinksey,Oxfordshire,Wolvercote,Summertown,Kidlington East,Cumnor,Cutteslowe & Sunnymead,Forest Hill & Holton,Osney & St Thomas,Walton Manor,Botley & Sunningwell,Carfax & Jericho,England
100,B33,-1.78841016787265,52.4802719869754,286948,414467,Birmingham,Birmingham, unparished area,,Sheldon,Yardley East,Yardley West & Stechford,Garretts Green,Glebe Farm & Tile Cross,England
13,SM2,-0.198793657094595,51.3518311165541,162956,525527,Reigate and Banstead,Epsom and Ewell,Sutton,Sutton, unparished area,Reigate and Banstead, unparished area,Epsom and Ewell, unparished area,Surrey,Sutton West,Cheam,Sutton Central,Banstead Village,Sutton South,Nonsuch,Belmont,England
14,EX7,-3.47027342138365,50.5842167106918,77086,296007,Teignbridge,Dawlish,Ashcombe,Teignmouth,Mamhead,Devon,Dawlish North East,Teignmouth East,Kenton & Starcross,Dawlish South West,England
15,G78,-4.41000870381231,55.7928444648094,658134,248999,Glasgow City,Renfrewshire,East Renfrewshire,North Ayrshire,East Ayrshire,,,Annick,Greater Pollok,Dalry and West Kilbride,Paisley Southeast,Newton Mearns North and Neilston,Barrhead, Liboside and Uplawmoor,Scotland
16,N81,-0.076735333333333,51.5663143333333,187024,533402,Newham,Haringey,Haringey, unparished area,Newham, unparished area,,Noel Park,Canning Town North,England
17,GL17,-2.51027038137083,51.854980228471,217500,364951,Herefordshire, County of,Forest of Dean,Mitcheldean,Littledean,Lydbrook,Blaisdon,Aston Ingham,Huntley,Ruardean,Hope Mansell,West Dean,Cinderford,Drybrook,Walford,Longhope,Taynton,Gloucestershire,Lydbrook,Penyard,Kerne Bridge,Cinderford East,Newent & Taynton,Cinderford West,Mitcheldean, Ruardean & Drybrook,Berry Hill,Westbury-on-Severn,Longhope & Huntley,Newnham,England
18,B25,-1.82166028464419,52.4652989775281,285276,412213,Birmingham,Birmingham, unparished area,,Tyseley & Hay Mills,Yardley East,Yardley West & Stechford,South Yardley,England
19,PA24,-4.90445313333333,56.1583886,699989,219719,Argyll and Bute,,,Cowal,Scotland
27,ST13,-2.01933080106952,53.1009891925133,355977,398803,Staffordshire Moorlands,Butterton,Grindon,Heathylee,Waterhouses,Ipstones,Leekfrith,Longsdon,Warslow and Elkstones,Leek,Bradnop,Biddulph,Onecote,Tittesworth,Cheddleton,Horton,Heaton,Cotton,Staffordshire,Biddulph Moor,Leek South,Leek East,Leek North,Ipstones,Hamps Valley,Leek West,Manifold,Dane,Cheddleton,Churnet,Horton,Biddulph South,England
36,AB32,-2.31851415320334,57.1551149387187,807184,380830,Aberdeenshire,Aberdeen City,,,Westhill and District,Lower Deeside,East Garioch,Scotland
46,CB8,0.42773375,52.2300266005747,261869,565899,East Cambridgeshire,South Cambridgeshire,West Suffolk,Newmarket,Gazeley,Cowlinge,Kirtling,Kennett,Snailwell,Kentford,Burrough Green,Stetchworth,Fordham,Woodditton,Great Bradley,Westley Waterless,Ousden,Wickhambrook,Weston Colville,Brinkley,Chippenham,Denston,Moulton,Stradishall,Swaffham Prior,Dalham,Little Wilbraham,Ashley,Herringswell,Cheveley,Dullingham,Great Thurlow,Hundon,Carlton,Bottisham,Swaffham Bulbeck,Lidgate,Exning,Cambridgeshire,Suffolk,Newmarket East,Newmarket North,Withersfield,Fen Ditton & Fulbourn,Balsham,Woodditton,Chedburgh & Chevington,Whepstead & Wickhambrook,Clare, Hundon & Kedington,Newmarket West,Fordham & Isleham,Bottisham,Iceni,Kentford & Moulton,Exning,England
56,NG21,-1.10438207037037,53.1417101703704,360881,460005,Gedling,Newark and Sherwood,Mansfield,Clipstone,Kings Clipstone,Ravenshead,Blidworth,Edwinstowe,Rainworth,Mansfield, unparished area,Nottinghamshire,Newlands,Edwinstowe & Clipstone,Rainworth South & Blidworth,Rainworth North & Rufford,Newstead Abbey,Ransom Wood,England
62,GU9,-0.794298826403326,51.2190966975053,147345,484301,Waverley,Farnham,Tilford,Surrey,Farnham Shortheath and Boundstone,Farnham Weybourne and Badshot Lea,Farnham Moor Park,Farnham Wrecclesham and Rowledge,Farnham Firgrove,Farnham Hale and Heath End,Frensham, Dockenfield and Tilford,Farnham Upper Hale,Farnham Castle,Farnham Bourne,England
75,GU2,-0.59422472106825,51.2457617299703,150559,498217,Guildford,Guildford, unparished area,Artington,Worplesdon,Surrey,Stoughton,Onslow,Worplesdon,Westborough,Shalford,Friary and St Nicolas,England
81,PO15,-1.22726747779479,50.8668498499234,107767,454475,Winchester,Fareham,Whiteley,Fareham, unparished area,Curdridge,Wickham,Hampshire,Sarisbury,Southwick and Wickham,Titchfield Common,Titchfield,Fareham North,Park Gate,Fareham South,Fareham North-West,Fareham West,Whiteley and Shedfield,England
90,WA8,-2.7416336834716,53.3730433924696,386499,350754,St. Helens,Halton,Knowsley,Warrington,Cuerdley,Bold,Knowsley, unparished area,Cronton,Halewood,Halebank,Halton, unparished area,,Central & West Bank,Highfield,Bold,Hough Green,Birchfield,Appleton,Halton View,Whiston and Cronton,Halewood South,Ditton, Hale Village & Halebank,Penketh and Cuerdley,Halewood North,Farnworth,Bankfield,England
995,PA25,-5.043772,56.2140003333333,706549,211343,Argyll and Bute,,,Cowal,Scotland
113,TR14,-5.29672918313253,50.2106496626505,39718,164881,Cornwall,Crowan,Illogan,Gwinear-Gwithian,Portreath,Carn Brea,Camborne,,Illogan,Gwinear-Gwithian and St Erth,Camborne Trelowarren,Mount Hawke and Portreath,Camborne Treslothan,Camborne Roskear,Pool and Tehidy,Crowan and Wendron,Camborne Treswithian,Four Lanes,Camborne Pendarves,England
123,G12,-4.30065168085107,55.8805479954407,667659,256179,Glasgow City,,,Hillhead,Partick East/Kelvindale,Victoria Park,Scotland
142,BT82,-7.43019092405063,54.8264908073137,397782,236668,Derry City and Strabane,,,Strabane North,Dunnamanagh,Sion Mills,Artigarvan,Finn,Ballycolman,Newtownstewart,Glenelly Valley,Strabane West,Slievekirk,Northern Ireland
144,CF48,-3.3715570013459,51.7416452664871,205662,305397,Merthyr Tydfil,Rhondda Cynon Taf,Powys,Caerphilly,Cyfarthfa,Pant,Rhymney,Town,Gurnos,Dowlais,Talybont-on-Usk,Darran Valley,Merthyr Vale,Vaynor,Hirwaun,Llanfrynach,Park,Troed-y-rhiw,,Cyfarthfa,Darren Valley,Town,Gurnos,Rhigos,Dowlais,Twyn Carno,Talybont-on-Usk,Plymouth,Merthyr Vale,Vaynor,Park,Wales
160,LS19,-1.68396534895833,53.8597321840278,440436,420883,Leeds,Bradford,Leeds, unparished area,Bradford, unparished area,Carlton,Rawdon,,Horsforth,Otley & Yeadon,Guiseley & Rawdon,Idle and Thackley,England
33,CT50,1.14356009090909,51.0795337272727,135835,620284,Folkestone and Hythe,Sandgate,Kent,Sandgate & West Folkestone,England
43,TA15,-2.71692132,50.95115836,117103,349736,South Somerset,Montacute,Odcombe,Somerset,Coker,Northstone, Ivelchester & St Michael's,England
55,RG9,-0.925931086614172,51.5450164129484,183449,474578,South Oxfordshire,Wokingham,Windsor and Maidenhead,Buckinghamshire,Checkendon,Wargrave,Shirburn,Sonning Common,Nettlebed,Hambleden,Watlington,Swyncombe,Harpsden,Turville,Shiplake,Fawley,Hurley,Great Marlow,Lane End,Ibstone,Rotherfield Greys,Rotherfield Peppard,Henley-on-Thames,Highmoor,Bix and Assendon,Remenham,Binfield Heath,Nuffield,Pishill with Stonor,Stoke Row,Oxfordshire,Remenham, Wargrave and Ruscombe,Chiltern Villages,Hurley & Walthams,Sonning Common,Woodcote & Rotherfield,Watlington,Henley-on-Thames,England
65,LE7,-1.07100634812287,52.6799492679181,309545,462905,Melton,Leicester,Blaby,Charnwood,Harborough,King's Norton,Barkby Thorpe,Illston on the Hill,Rearsby,Marefield,Scraptoft,Hungarton,Braunstone,Leicester, unparished area,Mountsorrel,Ratcliffe on the Wreake,Rothley,Thrussington,Keyham,Goadby,Houghton on the Hill,Beeby,Anstey,Rolleston,Hoby with Rotherby,East Norton,Frisby,Gaulby,Walton on the Wolds,South Croxton,East Goscote,Thurcaston and Cropston,Cold Newton,Thurmaston,Loddington,Seagrave,Syston,Newtown Linford,Wanlip,Noseley,Lowesby,Tugby and Keythorpe,Thurnby and Bushby,Billesdon,Hallaton,Barkby,Skeffington,Glenfields,Gaddesby,Cossington,Queniborough,Launde,Tilton on the Hill and Halstead,Leicestershire,Mountsorrel,Rothley and Thurcaston,Beaumont Leys,Syston West,Thurnby & Houghton,Frisby-on-the-Wreake,Anstey,Ellis,East Goscote,Thurmaston,Billesdon & Tilton,Winstanley,Forest Bradgate,Humberstone & Hamilton,Syston East,Birstall Wanlip,The Wolds,Glen,Wreake Villages,Gaddesby,Nevill,Queniborough,England
72,NG23,-0.80004680794702,53.1160229390728,358322,480410,South Kesteven,West Lindsey,Newark and Sherwood,Rushcliffe,North Kesteven,Bassetlaw,Newark,Ossington,Upton,Flintham,Thorpe,Saxilby with Ingleby,South Clifton,Shelton,Staythorpe,Tuxford,Averham,Normanton on Trent,Kelham,Sibthorpe,South Muskham,Eagle and Swinethorpe,East Stoke,Langford,Rolleston,Weston,Holme,Harby,Thorney,Syerston,Collingham,Caunton,Laxton and Moorhouse,Spalford,Bathley,North Scarle,Grassthorpe,Cromwell,Norwell,Cotham,North Muskham,Westborough and Dry Doddington,Stubton,North Clifton,Marnham,Wigsley,Girton,Sutton-on-Trent,Carlton-on-Trent,Claypole,South Scarle,Besthorpe,Elston,Long Bennington,Fenton,Farndon,Lincolnshire,Nottinghamshire,Loveden Heath,Viking,Muskham,Thoroton,Trent,Tuxford and Trent,Collingham,Castle,Sutton-on-Trent,Saxilby,Farndon & Fernwood,Eagle, Swinderby and Witham St Hughs,England
86,BT36,-5.95623704911592,54.6768572907663,382892,331881,Antrim and Newtownabbey,Mid and East Antrim,Belfast,,,Carnmoney Hill,Mossley,Glengormley,Ballynure,Glebe,Woodburn,Valley,Mallusk,Rostulla,Fairview,Ballyrobert,Ballyhenry,Collinbridge,O'Neill,Hightown,Burnthill,Ballyduff,Abbey,Rathcoole,Monkstown,Bellevue,Jordanstown,Carnmoney,Northern Ireland
96,LL56,-4.20593236986301,53.1843614657534,367524,252693,Gwynedd,Llanddeiniolen,Pentir,Y Felinheli,,Bethel,Pentir,Y Felinheli,Penisarwaun,Wales
107,GU18,-0.668428668965517,51.348057262069,161838,492832,Surrey Heath,Woking,West End,Windlesham,Woking, unparished area,Surrey,Mount Hermon,Bisley & West End,Lightwater,Windlesham & Chobham,England
120,LS9,-1.51024203121387,53.7995490080925,433804,432355,Leeds,Leeds, unparished area,,Burmantofts & Richmond Hill,Little London & Woodhouse,Gipton & Harehills,Garforth & Swillington,Cross Gates & Whinmoor,Temple Newsam,Hunslet & Riverside,England
129,HP3,-0.470550016085791,51.7360144798927,205251,505710,Three Rivers,St Albans,Dacorum,Abbots Langley,St Michael,Dacorum, unparished area,Flaunden,Kings Langley,Nash Mills,Bovingdon,Sarratt,Hertfordshire,Adeyfield East,Chorleywood North & Sarratt,Kings Langley,Bennetts End,Apsley and Corner Hall,Leverstock Green,Gade Valley,Nash Mills,Bovingdon, Flaunden and Chipperfield,Abbots Langley & Bedmond,Redbourn,England
135,SP11,-1.51261349321628,51.2276465714286,147721,434129,Wiltshire,Test Valley,Basingstoke and Deane,Andover,Abbotts Ann,Tidworth,Fyfield,Quarley,Wherwell,Kimpton,Appleshaw,Charlton,Linkenholt,Enham Alamein,Penton Mewsey,Ludgershall,Collingbourne Ducis,Vernhams Dean,Penton Grafton,Faccombe,St. Mary Bourne,Chute,Over Wallop,Tidcombe and Fosbury,Upper Clatford,Monxton,Hurstbourne Tarrant,Goodworth Clatford,Tangley,Hurstbourne Priors,Amport,Thruxton,Smannell,Chute Forest,Longparish,Grateley,Hampshire,Harewood,Tidworth,Evingar,Bourne Valley,Charlton & the Pentons,The Collingbournes and Netheravon,Bellinger,Andover Millway,Anna,Andover Downlands,Andover St Mary's,Andover Romans,Ludgershall and Perham Down,Andover Winton,England
35,BH5,-1.832281384,50.7253001,91755,411934,Bournemouth, Christchurch and Poole,Bournemouth, Christchurch and Poole, unparished area,,Boscombe West,East Cliff & Springbourne,Boscombe East & Pokesdown,England
44,MK6,-0.742937078048781,52.0295308439025,237536,486338,Milton Keynes,West Bletchley,Old Woughton,Simpson and Ashland,Woughton on the Green,Campbell Park,Kents Hill, Monkston and Brinklow,,Campbell Park & Old Woughton,Monkston,Bletchley West,Central Milton Keynes,Woughton & Fishermead,England
66,EX16,-3.49166292093373,50.922647120482,114750,295252,North Devon,Mid Devon,Somerset West and Taunton,Templeton,Stoodleigh,Culmstock,Puddington,Thorverton,East Anstey,Dulverton,Poughill,Uplowman,Huntsham,Bampton,Witheridge,Uffculme,Rose Ash,Loxbeare,Morebath,Oakford,Tiverton,Brushford,Holcombe Rogus,Washfield,Sampford Peverell,Cruwys Morchard,Cadbury,Halberton,Cheriton Fitzpaine,Thelbridge,Hockworthy,Cadeleigh,Burlescombe,Bickleigh,Clayhanger,Rackenford,Devon,Somerset,Westexe,Lowman,Sandford and Creedy,Lower Culm,Cranmore,Witheridge,Clare and Shuttern,Dulverton & District,Castle,Upper Culm,Canonsleigh,Bishop's Nympton,Cadbury,Halberton,Way,England
76,DT3,-2.46831702818991,50.6422525252226,82613,366981,Dorset,Chickerell,Fleet,Dorset, unparished area,Osmington,Portesham,Langton Herring,Abbotsbury,Long Bredy,Bincombe,,Chickerell,Melcombe Regis,Upwey & Broadwey,Radipole,Littlemoor & Preston,Chesil Bank,Crossways,Winterborne & Broadmayne,England
83,PL12,-4.25007356693989,50.4192979918033,60136,240250,Cornwall,Saltash,St. Dominick,St. Germans,St. Mellion,Calstock,Landulph,Deviock,Pillaton,Quethiock,Botusfleming,Landrake with St. Erney,,Saltash West,Saltash North,Saltash South,Menheniot,St Germans and Landulph,Gunnislake and Calstock,Saltash East,St Dominick, Harrowbarrow and Kelly Bray,Trelawny,England
93,SY3,-2.77318879447005,52.6989616331798,311534,347846,Shropshire,Bicton,Bayston Hill,Shrewsbury,Longden,Condover,,Radbrook,Meole,Bowbrook,Burnell,Tern,Longden,Porthill,Bayston Hill, Column and Sutton,Belle Vue,Copthorne,Quarry and Coton Hill,England
106,B46,-1.69498899792531,52.5088555809129,290150,420798,North Warwickshire,Coleshill,Fillongley,Maxstoke,Shustoke,Arley,Lea Marston,Nether Whitacre,Little Packington,Curdworth,Water Orton,Over Whitacre,Warwickshire,Coleshill North,Fillongley,Coleshill South,Curdworth,Water Orton,Arley and Whitacre,England
114,N9,-0.058026113895216,51.6285091480637,193974,534512,Enfield,Enfield, unparished area,,Haselbury,Bush Hill Park,Edmonton Green,Ponders End,Jubilee,Lower Edmonton,England
128,ME3,0.547053118727051,51.4355754394124,173810,577134,Gravesham,Medway,Stoke,High Halstow,Shorne,Medway, unparished area,St. Mary Hoo,Higham,Cooling,Hoo St. Werburgh,Isle of Grain,Frindsbury Extra,Cliffe and Cliffe Woods,Allhallows,Kent,Rochester West,Shorne, Cobham and Luddesdown,Peninsula,Higham,Strood Rural,England
140,ML10,-4.06943459090909,55.6799083030303,644877,269973,South Lanarkshire,,,Avondale and Stonehouse,Larkhall,Scotland
112,SM7,-0.201441526427061,51.3229172262157,159737,525421,Reigate and Banstead,Sutton,Sutton, unparished area,Reigate and Banstead, unparished area,Surrey,Chipstead, Kingswood & Woodmansterne,Cheam,Banstead Village,Carshalton South and Clockhouse,Nork,England
149,B45,-2.00913136609687,52.3885185982906,276721,399475,Birmingham,Bromsgrove,Barnt Green,Birmingham, unparished area,Romsley,Bromsgrove, unparished area,Alvechurch,Frankley,Lickey and Blackwell,Cofton Hackett,New Frankley in Birmingham,Worcestershire,Rubery South,Rubery North,Marlbrook,Cofton,Rubery & Rednal,Belbroughton & Romsley,Barnt Green & Hopwood,Lickey Hills,Frankley Great Park,Longbridge & West Heath,England
161,M11,-2.18128554262517,53.4788640649526,398030,388065,Tameside,Manchester,Tameside, unparished area,Manchester, unparished area,,Ancoats & Beswick,Droylsden East,Clayton & Openshaw,England
172,LS99,-1.54654075,53.77591375,431162,429984,Leeds,Leeds, unparished area,,Calverley & Farsley,Hunslet & Riverside,England
184,PA2,-4.43486699897436,55.8287383938462,662182,247582,Renfrewshire,East Renfrewshire,,,Johnstone South and Elderslie,Paisley Southwest,Paisley Southeast,Paisley East and Central,Paisley Northwest,Barrhead, Liboside and Uplawmoor,Paisley Northeast and Ralston,Johnstone North, Kilbarchan, Howwood and Lochwinnoch,Scotland
189,RM6,0.129535260869565,51.5758012608696,188474,547664,Barking and Dagenham,Redbridge,Barking and Dagenham, unparished area,Redbridge, unparished area,,Goodmayes,Chadwell,Seven Kings,Chadwell Heath,Aldborough,Whalebone,England
199,LN2,-0.506720227722772,53.2568570756076,374356,499715,West Lindsey,Lincoln,Greetwell,Riseholme,Lincoln, unparished area,Grange de Lings,Sudbrooke,Nettleham,Hackthorn,Cold Hanworth,Scothern,Welton,Dunholme,Lincolnshire,Glebe,Sudbrooke,Cherry Willingham,Nettleham,Dunholme and Welton,Abbey,Minster,Carholme,Boultham,England
24,PA4,-4.395338995,55.87483769,667225,250235,Renfrewshire,,,Renfrew North and Braehead,Renfrew South and Gallowhill,Erskine and Inchinnan,Paisley Northwest,Scotland
32,LE67,-1.36232948219178,52.7154935116439,313283,443173,Hinckley and Bosworth,Charnwood,North West Leicestershire,Ashby-de-la-Zouch,Worthington,Ulverscroft,Ravenstone with Snibstone,Shepshed,Heather,Groby,Swepstone,Charley,Belton,Ellistown and Battleflat,Normanton le Heath,Nailstone,Coleorton,Swannington,Stanton-under-Bardon,Whitwick,Hugglescote and Donington le Heath,Newtown Linford,Ibstock,Osgathorpe,Markfield,Bagworth & Thornton,Bardon,North West Leicestershire, unparished area,Leicestershire,Snibston North,Coalville East,Greenhill,Worthington & Breedon,Barlestone, Nailstone and Osbaston,Sence Valley,Ibstock East,Ratby, Bagworth and Thornton,Castle Rock,Appleby,Long Whatton & Diseworth,Ashby Holywell,Valley,Shepshed West,Ravenstone & Packington,Hugglescote St Mary's,Ibstock West,Hermitage,Thornborough,Ellistown & Battleflat,Snibston South,Coalville West,Hugglescote St John's,Holly Hayes,Forest Bradgate,Broom Leys,Markfield, Stanton and Fieldhead,Bardon,Thringstone,England
37,W3,-0.267983472861085,51.5106548638455,180502,520291,Hounslow,Hammersmith and Fulham,Ealing,Ealing, unparished area,Hounslow, unparished area,Hammersmith and Fulham, unparished area,,Wormholt and White City,Ealing Common,East Acton,Acton Central,Hanger Hill,College Park and Old Oak,Southfield,Brentford,Turnham Green,Askew,South Acton,England
47,B28,-1.84321560988075,52.4272081192504,281036,410757,Birmingham,Solihull,Birmingham, unparished area,Solihull, unparished area,,Tyseley & Hay Mills,Acocks Green,Olton,Hall Green South,Hall Green North,Billesley,England
57,RG5,-0.899861684,51.45201993,173133,476541,Wokingham,Reading,Earley,Charvil,Reading, unparished area,Woodley,,Coronation,Charvil,Bulmershe and Whitegates,Sonning,Loddon,South Lake,Whitley,England
69,PH2,-3.40389262649641,56.3871779720671,722543,313417,Perth and Kinross,Fife,,,Perth City South,Strathtay,Strathallan,Kinross-shire,Howe of Fife and Tay Coast,Almond and Earn,Perth City Centre,Carse of Gowrie,Strathmore,Scotland
79,NR17,0.994377151012892,52.5153245690608,295040,603275,Breckland,Attleborough,Old Buckenham,Rocklands,Carbrooke,Little Ellingham,Quidenham,Shropham,Great Ellingham,Hockham,Stow Bedon,Caston,Besthorpe,Norfolk,All Saints & Wayland,Attleborough Burgh & Haverscroft,Saham Toney,Attleborough Queens & Besthorpe,The Buckenhams & Banham,England
89,SW1A,-0.132200849315069,51.5044709452055,180046,529731,Westminster,Wandsworth,Wandsworth, unparished area,Westminster, unparished area,,Queenstown,St James's,England
97,M26,-2.33495571563981,53.5623094099526,407351,377910,Bury,Bolton,Bury, unparished area,Bolton, unparished area,,Little Lever and Darcy Lever,Radcliffe East,Radcliffe West,Kearsley,Radcliffe North,Pilkington Park,England
92,CF42,-3.52386049350649,51.6673415324675,197607,294709,Rhondda Cynon Taf,Treorchy,Treherbert,,Treorchy,Treherbert,Wales
109,WR9,-2.15816616166282,52.2670532933026,263222,389303,Wyre Forest,Wychavon,Ombersley,Rushock,Elmbridge,Crowle,Droitwich Spa,Upton Warren,Westwood,Huddington,Hadzor,Hanbury,Himbleton,Oddingley,Salwarpe,Dodderhill,Elmley Lovett,Doverdale,Hampton Lovett,Tibberton,Worcestershire,Ombersley,Wyre Forest Rural,Droitwich South West,Bowbrook,Droitwich East,Lovett and North Claines,Droitwich West,Droitwich Central,Dodderhill,Droitwich South East,Inkberrow,England
118,M23,-2.28894067324291,53.3995748150431,389233,380885,Trafford,Manchester,Trafford, unparished area,Manchester, unparished area,,Brooklands,Northenden,Baguley,Village,England
125,SP3,-2.01589975037147,51.1021289762259,133651,398978,Wiltshire,East Knoyle,Ansty,Tilshead,Steeple Langford,Winterbourne Stoke,Burcombe Without,Tisbury,West Tisbury,Sedgehill and Semley,Hindon,Stapleford,Barford St. Martin,Teffont,Sutton Mandeville,Great Wishford,South Newton,Berwick St. James,Woodford,Shrewton,Chicklade,Fovant,Orcheston,Chilmark,Swallowcliffe,Fonthill Gifford,Compton Chamberlayne,Fonthill Bishop,Berwick St. Leonard,Dinton,,Tisbury,Fovant and Chalke Valley,Till and Wylye Valley,Nadder and East Knoyle,Wilton and Lower Wylye Valley,Bourne and Woodford Valley,England
137,CA17,-2.35092961711712,54.4801693648649,509481,377358,Eden,Ravenstonedale,Mallerstang,Wharton,Hartley,Soulby,Waitby,Winton,Brough Sowerby,Musgrave,Brough,Stainmore,Crosby Garrett,Nateby,Kaber,Kirkby Stephen,Helbeck,Cumbria,Ravenstonedale,Brough,Kirkby Stephen,England
150,M16,-2.26450568181818,53.4550321060606,395396,382533,Trafford,Manchester,Trafford, unparished area,Manchester, unparished area,,Clifford,Gorse Hill,Longford,Moss Side,Stretford,Chorlton Park,Whalley Range,Chorlton,England
380,CA16,-2.48364864885496,54.5739324961832,519965,368832,Eden,Hoff,Asby,Crackenthorpe,Milburn,Soulby,Long Marton,Musgrave,Dufton,Appleby-in-Westmorland,Murton,Ormside,Warcop,Bolton,Colby,Cumbria,Ravenstonedale,Crosby Ravensworth,Long Marton,Appleby (Bongate),Brough,Appleby (Appleby),Warcop,England
25,PH14,-3.18091182857143,56.4528796571428,729594,327311,Perth and Kinross,,,Carse of Gowrie,Scotland
34,M4,-2.23001729777778,53.4849024666667,398711,384833,Manchester,Manchester, unparished area,,Cheetham,Piccadilly,Miles Platting & Newton Heath,Ancoats & Beswick,Deansgate,England
45,BB7,-2.38888791043478,53.871133653913,441729,374525,Pendle,Ribble Valley,Hyndburn,Sabden,Aighton, Bailey and Chaigley,Sawley,Waddington,West Bradford,Mearley,Bashall Eaves,Easington,Bowland-with-Leagram,Gisburn Forest,Clitheroe,Newsholme,Bowland Forest Low,Bolton-by-Bowland,Newton,Barrow,Bowland Forest High,Worston,Paythorne,Slaidburn,Gisburn,Middop,Billington and Langho,Little Mitton,Bracewell and Brogden,Pendleton,Twiston,Hyndburn, unparished area,Whalley,Downham,Chatburn,Wiswell,Rimington,Grindleton,Great Mitton,Lancashire,Sabden,Edisford & Low Moor,Littlemoor,Wiswell & Barrow,Chipping,Salthill,East Whalley, Read & Simonstone,Brockhall & Dinckley,Bowland,Waddington, Bashall Eaves & Mitton,Gisburn & Rimington,Whalley & Painter Wood,Barnoldswick,West Bradford & Grindleton,St Mary's,Primrose,Overton,Hurst Green & Whitewell,Whalley Nethertown,Billington & Langho,Chatburn,England
52,NP16,-2.69007757783641,51.6504554854881,194855,352353,Monmouthshire,Forest of Dean,Devauden,Hewelsfield and Brockweir,Woolaston,Caerwent,Mathern,Trellech United,Tidenham,Shirenewton,St. Briavels,St. Arvans,Tintern,Chepstow,Gloucestershire,Devauden,Caerwent,Trellech United,Tidenham,Shirenewton,St. Briavels,St. Mary's,Larkfield,St. Kingsmark,St. Arvans,St. Christopher's,Thornwell,Wales,England
60,BS28,-2.81504468253968,51.226089026455,147749,343182,Mendip,Sedgemoor,Weare,Chapel Allerton,Cheddar,Mark,Wedmore,Godney,Somerset,Wedmore and Mark,Wookey and St Cuthbert Out West,Axevale,Cheddar and Shipham,England
70,NW9,-0.255298495708154,51.5880842732474,189134,520966,Barnet,Brent,Harrow,Brent, unparished area,Harrow, unparished area,Barnet, unparished area,,Welsh Harp,Burnt Oak,West Hendon,Northwick Park,Kenton East,Colindale,Kenton,Fryent,Barnhill,Queensbury,England
84,BA13,-2.18180561047463,51.2621101767594,151455,387410,Wiltshire,Mendip,Southwick,Steeple Ashton,Dilton Marsh,West Ashton,Heywood,Selwood,Coulston,Chapmanslade,North Bradley,Westbury,Bratton,Edington,Somerset,Summerham and Seend,Southwick,Westbury East,Ethandune,Westbury West,Beckington and Selwood,Westbury North,Warminster Without,England
85,WS5,-1.95831110079576,52.5659745623342,296461,402922,Sandwell,Walsall,Walsall, unparished area,Sandwell, unparished area,,Paddock,Great Barr with Yew Tree,St Matthew's,Pheasey Park Farm,Palfrey,England
91,RG26,-1.12988926604069,51.3401233458528,160475,460705,West Berkshire,Basingstoke and Deane,Sherborne St John,Bramley,Ashford Hill with Headley,Hannington,Tadley,Silchester,Monk Sherborne,Kingsclere,Baughurst,Basingstoke and Deane, unparished area,Wootton St. Lawrence,Pamber,Aldermaston,Hampshire,Bramley,Sherborne St John & Rooksdown,Tadley North, Kingsclere & Baughurst,Winklebury & Manydown,Aldermaston,Tadley & Pamber,England
105,B68,-2.00139035283993,52.4785721222031,286738,400002,Sandwell,Sandwell, unparished area,,Old Warley,St Pauls,Smethwick,Langley,Bristnall,Abbey,England
116,TQ3,-3.57640195066667,50.443934552,61642,288163,South Hams,Teignbridge,Torbay,Marldon,Kingskerswell,Torbay, unparished area,Devon,Goodrington with Roselands,Roundham with Hyde,Marldon & Littlehempston,Kerswell-with-Combe,Collaton St Mary,Clifton with Maidenway,King's Ash,Preston,Cockington with Chelston,England
127,S80,-1.15223241573034,53.2925116087845,377618,456606,Rotherham,Bassetlaw,Bolsover,Carburton,North and South Anston,Elkesley,Welbeck,Bassetlaw, unparished area,Rhodesia,Clowne,Clumber and Hardwick,Holbeck,Thorpe Salvin,Old Bolsover,Elmton with Creswell,Hodthorpe and Belph,Whitwell,Derbyshire,Nottinghamshire,Worksop East,Worksop South East,Welbeck,Clowne West,Worksop North West,Worksop South,Bolsover North & Shuttlewood,Anston & Woodsetts,Whitwell,Elmton-with-Creswell,England
139,SW95,-0.136274227272727,51.4803984090909,177362,529517,Wandsworth,Lambeth,Lambeth, unparished area,Wandsworth, unparished area,,Queenstown,Stockwell,England
151,N17,-0.071699437440306,51.5980956513849,190566,533655,Waltham Forest,Enfield,Haringey,Enfield, unparished area,Haringey, unparished area,Waltham Forest, unparished area,,High Street,Northumberland Park,Bruce Grove,White Hart Lane,Upper Edmonton,Tottenham Green,Woodside,West Green,Tottenham Hale,England
159,ML11,-3.78919195790458,55.6671593105707,642972,287552,West Lothian,South Lanarkshire,,,Fauldhouse and the Breich Valley,Clydesdale South,Clydesdale East,Clydesdale West,Clydesdale North,Scotland
173,CF99,-3.161341,51.464504,174588,319421,Cardiff,Butetown,,Butetown,Wales
179,E20,-0.010048730538922,51.54647951497,184941,538081,Hackney,Waltham Forest,Newham,Tower Hamlets,Hackney, unparished area,Tower Hamlets, unparished area,Waltham Forest, unparished area,Newham, unparished area,,Stratford and New Town,Hackney Wick,Bow East,Leyton,England
28,TA22,-3.54508029239766,51.045754251462,128514,291785,North Devon,Mid Devon,Somerset West and Taunton,Molland,Withypool and Hawkridge,East Anstey,Winsford,Dulverton,Bampton,Exton,Morebath,Brushford,West Anstey,Brompton Regis,Devon,Somerset,Exmoor,North Molton,Clare and Shuttern,Dulverton & District,Bishop's Nympton,England
39,CF45,-3.36228121689498,51.6696214406392,197639,305888,Rhondda Cynon Taf,Abercynon,Penrhiwceiber,Aberaman North,Mountain Ash East,Mountain Ash West,,Abercynon,Penrhiwceiber,Aberaman North,Mountain Ash East,Mountain Ash West,Wales
54,BA21,-2.63370319738562,50.9520964169934,117154,355582,South Somerset,Dorset,Mudford,Brympton,Yeovil,Yeovil Without,Bradford Abbas,Chilthorne Domer,Somerset,Brympton,Yeovil Without,Yeovil College,Sherborne Rural,Northstone, Ivelchester & St Michael's,Yeovil Summerlands,Yeovil Lyde,England
63,SK23,-1.94840113182674,53.3277613709981,381206,403534,High Peak,Cheshire East,Hayfield,Chinley, Buxworth and Brownside,Whaley Bridge,New Mills,Chapel-en-le-Frith,Kettleshulme,Lyme Handley,Derbyshire,Hayfield,Whaley Bridge,New Mills East,Limestone Peak,Blackbrook,Chapel West,Chapel East,New Mills West,Poynton East and Pott Shrigley,England
71,PA36,-4.769619,56.5241275714286,740336,229729,Argyll and Bute,,,Oban North and Lorn,Scotland
80,G20,-4.28263185479452,55.885854160274,668212,257326,Glasgow City,,,Canal,Hillhead,Maryhill,Scotland
95,SO22,-1.33582684356725,51.0664999210526,129894,446635,Winchester,Winchester, unparished area,Littleton and Harestock,Hursley,Headbourne Worthy,Sparsholt,Badger Farm,Olivers Battery,Hampshire,Wonston and Micheldever,St Paul,St Luke,St Bartholomew,The Worthys,St Barnabas,Badger Farm and Oliver's Battery,England
102,NE48,-2.25834999766355,55.1319116471963,581985,383631,Northumberland,Bellingham,Simonburn,Chollerton,Tarset,Falstone,Kielder,Wark,Elsdon,Greystead,Bavington,Birtley,Kirkwhelpington,Corsenside,,Humshaugh,Bellingham,Rothbury,England
122,HU12,-0.127073821756225,53.7239734325033,426916,523677,Kingston upon Hull, City of,East Riding of Yorkshire,Burton Pidsea,Sunk Island,Paull,Halsham,Easington,Roos,Rimswell,Elstronwick,East Garton,Hedon,Burstwick,Humbleton,Kingston upon Hull, City of, unparished area,Patrington,Keyingham,Skeffling,Ottringham,Preston,Welwick,Thorngumbald,,South West Holderness,Mid Holderness,Drypool,South East Holderness,England
131,WD25,-0.387819359467456,51.6871325991124,199938,511543,Hertsmere,Three Rivers,St Albans,Watford,Abbots Langley,St Stephen,Hertsmere, unparished area,Aldenham,Watford, unparished area,Hertfordshire,Meriden,Aldenham West,St Stephen,Holywell,Woodside,Leggatts,Bushey St James,Bushey North,Stanborough,Leavesden,England
134,PO31,-1.30735279782609,50.7553931500001,95317,448954,Isle of Wight,Calbourne, Newtown and Porchfield,Cowes,Newport and Carisbrooke,Gurnard,Northwood,,Cowes Medina,Cowes South and Northwood,Parkhurst,Cowes West and Gurnard,West Wight,Cowes North,England
145,LS17,-1.52771922608695,53.8600125422925,440524,431159,Leeds,Harrogate,Leeds, unparished area,Harewood,Shadwell,Scarcroft,Alwoodley,North Rigton,East Keswick,Kirkby Overblow,Weeton,Stainburn,Thorner,Bardsey cum Rigton,North Yorkshire,Washburn,Harewood,Roundhay,Spofforth with Lower Wharfedale,Alwoodley,Moortown,Cross Gates & Whinmoor,England
157,HU7,-0.329060811634349,53.7908863448754,434024,510173,Kingston upon Hull, City of,East Riding of Yorkshire,Kingston upon Hull, City of, unparished area,Wawne,,Ings,Mid Holderness,Kingswood,North Carr,West Carr,Sutton,Holderness,England
166,WS13,-1.81913857619048,52.6925809809524,310559,412320,Lichfield,Lichfield,Farewell and Chorley,King's Bromley,Curborough and Elmhurst,Longdon,Hammerwich,Wall,Burntwood,Whittington,Fisherwick,Edingale,Fradley and Streethay,Staffordshire,Alrewas & Fradley,Boley Park,Chadsmead,Hammerwich with Wall,Leomansley,Whittington & Streethay,Highfield,Longdon,Mease Valley,Curborough,Armitage with Handsacre,Stowe,England
175,LE87,-1.13366690243902,52.627703804878,303679,458736,Leicester,Blaby,Oadby and Wigston,Leicester, unparished area,Oadby and Wigston, unparished area,Whetstone,Leicestershire,Cosby with South Whetstone,Wigston All Saints,Castle,England
185,BR1,0.020878466666667,51.4120226722221,170048,540638,Bromley,Lewisham,Lewisham, unparished area,Bromley, unparished area,,Whitefoot,Plaistow and Sundridge,Bickley,Downham,Bromley Town,England
29,IG9,0.040422267361111,51.6259258159722,193872,541334,Epping Forest,Redbridge,Buckhurst Hill,Redbridge, unparished area,Loughton,Essex,Monkhams,Buckhurst Hill West,Buckhurst Hill East,Bridge,Loughton Broadway,England
38,PH34,-4.92800041666667,56.9205490416667,784846,221875,Highland,,,Caol and Mallaig,Scotland
50,GL13,-2.46134851271186,51.6925016059322,199406,368207,Stroud,South Gloucestershire,Ham and Stone,Rockhampton,Berkeley,Hamfallow,Alkington,Hill,Stinchcombe,Hinton,Gloucestershire,Wotton-under-Edge,Severn Vale,Berkeley Vale,England
58,B32,-1.99453141261498,52.4484316412616,283385,400468,Birmingham,Bromsgrove,Birmingham, unparished area,Frankley,Worcestershire,Quinton,Weoley & Selly Oak,Belbroughton & Romsley,Bartley Green,Harborne,England
68,EC4N,-0.091403394736842,51.5128627368421,181052,532538,Islington,City of London,Islington, unparished area,City of London, unparished area,,Cordwainer,Vintry,Walbrook,Clerkenwell,Dowgate,Candlewick,England
78,EH39,-2.73429957487923,56.0470395966184,684040,354356,East Lothian,,,Haddington and Lammermuir,North Berwick Coastal,Scotland
88,EH11,-3.25172323411017,55.9326891758475,671777,321895,City of Edinburgh,,,Pentland Hills,Morningside,Drum Brae/Gyle,Fountainbridge/Craiglockhart,Corstorphine/Murrayfield,City Centre,Sighthill/Gorgie,Scotland
94,DL9,-1.70755780829015,54.3754013601037,497805,419094,Richmondshire,Hipswell,Hudswell,Colburn,Tunstall,Hunton,Brough with St. Giles,Scotton,North Yorkshire,Hipswell,Colburn,Lower Swaledale & Arkengarthdale,Catterick & Brompton-on-Swale,Scotton,England
82,ST19,-2.14739759453303,52.7085794031891,312334,390137,Shropshire,Stafford,South Staffordshire,Penkridge,Blymhill and Weston-under-Lizard,Stafford, unparished area,Hatherton,Teddesley Hay,Acton Trussell and Bednall,Tong,Brewood and Coven,Lapley, Stretton and Wheaton Aston,Huntington,Staffordshire,Wheaton Aston, Bishopswood and Lapley,Penkridge North East and Acton Trussell,Shifnal South and Cosford,Penkridge West,Brewood and Coven,Rowley,Huntington and Hatherton,Penkridge South East,England
110,BD23,-2.05649541180706,53.9932826594674,455253,396394,Craven,Pendle,Harrogate,Ribble Valley,Skipton,Earby,Halton Gill,Horton in Ribblesdale,Airton,Thorpe,Hartlington,Elslack,Bradleys Both,Gargrave,Hellifield,Kirkby Malham,Conistone with Kilnsey,Calton,Malham,Kettlewell with Starbotton,Embsay with Eastby,Halton West,Halton East,Easington,Gisburn Forest,Bank Newton,Hebden,Beamsley,Eshton,Bolton Abbey,Thornton in Craven,Cracoe,Hanlith,Broughton,Bolton-by-Bowland,Hetton-cum-Bordley,Linton,Draughton,Paythorne,Martons Both,Carleton,Grassington,Malham Moor,Rylstone,Stirton with Thorlby,Burnsall,Barden,Threshfield,Appletreewick,Litton,Buckden,Settle,Wigglesworth,Bracewell and Brogden,Hawkswick,Scosthrop,Flasby with Winterburn,Blubberhouses,Coniston Cold,Long Preston,Horton,Otterburn,Hazlewood with Storiths,Arncliffe,Lancashire,North Yorkshire,Skipton South,Washburn,Settle and Ribblebanks,Gargrave and Malhamdale,Bowland,Gisburn & Rimington,Aire Valley with Lothersdale,Earby & Coates,Barden Fell,Barnoldswick,Grassington,Penyghent,Hellifield and Long Preston,Skipton West,Embsay-with-Eastby,Upper Wharfedale,Skipton North,Skipton East,West Craven,England
119,KA13,-4.70015537053571,55.6556656897322,643544,230218,North Ayrshire,East Ayrshire,,,Annick,Kilwinning,Dalry and West Kilbride,Scotland
126,AB99,-2.093992,57.11134,802269,394406,Aberdeen City,,,Kincorth/Nigg/Cove,Scotland
141,M35,-2.15479830518234,53.5072112495201,401180,389830,Oldham,Oldham, unparished area,,Failsworth East,Failsworth West,England
148,WS1,-1.9786751921875,52.5793747234375,297951,401542,Sandwell,Walsall,Walsall, unparished area,Sandwell, unparished area,,Pleck,Paddock,St Matthew's,Darlaston South,Friar Park,Palfrey,England
152,NE62,-1.59351582481752,55.1614915474453,585316,425996,Northumberland,Choppington,West Bedlington,East Bedlington,Ashington,,Choppington,Bothal,Bedlington East,Stakeford,Sleekburn,Bedlington West,England
156,CM1,0.45732429380413,51.7466959613592,208190,569736,Uttlesford,Chelmsford,Springfield,Highwood,Great Waltham,High Easter,Chignall,Mashbury,Broomfield,Chelmsford, unparished area,Good Easter,Margaret Roding,Little Waltham,Roxwell,Writtle,Essex,Waterhouse Farm,High Easter & the Rodings,Chelmsford Rural West,Trinity,The Lawns,Springfield North,Patching Hall,Marconi,Chelmer Village and Beaulieu Park,Broomfield and The Walthams,Moulsham and Central,Writtle,St Andrews,England
164,TN1,0.266536827848101,51.1347811291139,139720,558672,Tunbridge Wells,Tonbridge and Malling,Tonbridge and Malling, unparished area,Tunbridge Wells, unparished area,Kent,Broadwater,Culverden,Medway,Pantiles and St Mark's,St James',St John's,Park,England
174,GU46,-0.831993296187683,51.3385283313783,160585,481458,Hart,Bracknell Forest,Yateley,Sandhurst,Eversley,Hampshire,Little Sandhurst and Wellington,Yateley East,Hartley Wintney,Yateley West,England
178,N11,-0.138994755336617,51.6137645681445,192188,528950,Barnet,Enfield,Haringey,Enfield, unparished area,Haringey, unparished area,Barnet, unparished area,,Coppetts,Bowes,Brunswick Park,Alexandra,Southgate Green,Bounds Green,England
192,BT35,-6.44213086536903,54.1619558085969,324782,301806,Armagh City, Banbridge and Craigavon,Newry, Mourne and Down,,,Crossmaglen,Newtownhamilton,Camlough,Markethill,Bessbrook,Forkhill,Ballybot,Mullaghbane,Drumalane,Damolly,Whitecross,Seagahan,St. Patrick's,Mayobridge,Loughbrickland,Fathom,Northern Ireland
30,SE19,-0.08610974624374,51.4179803756261,170511,533181,Bromley,Croydon,Southwark,Lambeth,Lambeth, unparished area,Southwark, unparished area,Croydon, unparished area,Bromley, unparished area,,South Norwood,Norbury Park,Crystal Palace & Upper Norwood,Dulwich Wood,Crystal Palace,Gipsy Hill,Knight's Hill,England
40,S14,-1.4443831147541,53.3460167759563,383378,437087,Sheffield,"Sheffield, unparished area",,"Gleadless Valley"",""Graves Park",England
51,KA17,-4.2791575106383,55.6106321489362,637583,256535,"East Ayrshire",,,"Irvine Valley",Scotland
64,PE29,-0.179188471065992,52.3322912913704,272027,524167,Huntingdonshire,"Huntingdon,Godmanchester",Cambridgeshire,"Brampton,""Huntingdon North"",""The Stukeleys"",""Huntingdon East"",""Godmanchester & Hemingford Abbots",England
74,DL17,-1.54110067169811,54.6804755377358,531809,429686,"County Durham","Kelloe,Cornforth,Spennymoor,Windlestone,Fishburn,""Bishop Middleham"",""Great Aycliffe"",Chilton,""Bradbury and the Isle"",Ferryhill",,"Aycliffe North and Middridge"",""Bishop Middleham and Cornforth"",Coxhoe,Sedgefield,Chilton,Ferryhill,Tudhoe,""Aycliffe East",England
99,WD7,-0.309945839534884,51.6869882023256,200044,516926,"Hertsmere,""St Albans","Shenley,""St Stephen"",Aldenham,""London Colney"",""Elstree and Borehamwood",Hertfordshire,"Shenley,""Aldenham West"",""Borehamwood Brookmeadow"",""Park Street"",""Aldenham East"",""London Colney",England
104,PA31,-5.45844045045045,56.0524763648649,689799,184738,"Argyll and Bute",,,"Mid Argyll",Scotland
115,SA6,-3.92255160369881,51.6761649788639,199239,267164,Swansea,"Llangyfelach,Landore,Morriston,Mawr,Llansamlet,Clydach,Mynyddbach,Birchgrove",,"Llangyfelach,Landore,Morriston,Mawr,Llansamlet,Clydach,Mynyddbach",Wales
130,S6,-1.51312763681183,53.4028463286771,389667,432467,Sheffield,"Ecclesfield,Bradfield,""Sheffield, unparished area",,"West Ecclesfield"",Hillsborough,""Broomhill and Sharrow Vale"",Stannington,Fulwood,City,Walkley,Southey,""Stocksbridge and Upper Don",England
138,PA26,-4.93706725,56.258756625,711241,218170,"Argyll and Bute",,,Cowal,Scotland
146,TS1,-1.23922910873147,54.5719169868205,519898,449281,Middlesbrough,"Middlesbrough, unparished area",,"Newport,Central,Park",England
155,G43,-4.29181137652812,55.818493183374,660736,256503,"Glasgow City",,,"Newlands/Auldburn,Pollokshields,Langside",Scotland
1258,BN52,-0.168044882352941,50.834405117647,105474,529099,"Brighton and Hove","Brighton and Hove, unparished area",,Goldsmid,England
162,TS7,-1.18326319047619,54.5339963996599,515720,452948,"Redcar and Cleveland"",Middlesbrough,Hambleton","Redcar and Cleveland, unparished area"",Guisborough,""Middlesbrough, unparished area"",Nunthorpe,Newby,""Great Ayton","North Yorkshire","Hutton,Ormesby,Guisborough,""Marton West"",Normanby,""Marton East"",""Park End & Beckfield"",""Hutton Rudby"",""Coulby Newham"",Ladgate,Nunthorpe,""Great Ayton",England
167,GU10,-0.798066126182965,51.1965267970558,144832,484079,"Hart,Waverley,""East Hampshire"",Guildford","Puttenham,Tongham,Haslemere,Frensham,Churt,Dockenfield,Ewshot,Bentley,Farnham,""Seale and Sands"",Wanborough,Headley,Ash,Tilford,Dogmersfield,Froyle,Crondall,Elstead,Binsted","Hampshire,Surrey","Hindhead,Pilgrims,""Ash South and Tongham"",""Binsted, Bentley & Selborne"",""Farnham Shortheath and Boundstone"",""Farnham Weybourne and Badshot Lea"",""Farnham Moor Park"",""Farnham Wrecclesham and Rowledge"",""Elstead and Thursley"",""Frensham, Dockenfield and Tilford"",""Farnham Upper Hale"",""Farnham Castle"",Odiham,""Farnham Bourne"",Headley,""Crookham West and Ewshot"",""Bentworth & Froyle",England
176,BB10,-2.21958895995423,53.7995785789474,433719,385634,"Pendle,Burnley","Cliviger,Worsthorne-with-Hurstwood,Briercliffe,""Burnley, unparished area"",Nelson,Brierfield,""Reedley Hallows",Lancashire,"Bank Hall"",""Cliviger with Worsthorne"",Brunshaw,""Brierfield East & Clover Hill"",""Marsden & Southfield"",Briercliffe,Lanehead,""Daneshouse with Stoneyholme"",Queensgate,""Brierfield West & Reedley",England
195,E16,0.028975912995595,51.5106709713655,181033,540897,Newham,"Newham, unparished area",,"Canning Town North"",Beckton,""Custom House"",""Royal Docks"",""Plaistow South"",""Canning Town South",England
205,PO3,-1.05917551612903,50.8162929239631,102282,466375,Portsmouth,"Portsmouth, unparished area",,"Fratton,Baffins,Hilsea,Copnor,Milton,""Charles Dickens",England
217,NR31,1.70883268146214,52.5749186483899,303917,651397,"Great Yarmouth"",""East Suffolk"",""South Norfolk","Lound,""Fritton and St. Olaves"",""Belton with Browston"",Bradwell,""Burgh Castle"",""Great Yarmouth, unparished area"",Haddiscoe,Hopton-on-Sea","Norfolk,Suffolk","Lothingland,""Bradwell South and Hopton"",""Bradwell North"",Claydon,Thurlton,Magdalen,""Central and Northgate"",""St Andrews"",Gorleston,""Southtown and Cobholm",England
31,PA5,-4.50971013582343,55.8309371528013,662594,242904,Renfrewshire,,,"Johnstone South and Elderslie"",""Paisley Southwest"",""Houston, Crosslee and Linwood"",""Johnstone North, Kilbarchan, Howwood and Lochwinnoch",Scotland
42,RM12,0.207162639072848,51.5529203956954,186089,553118,Havering,"Havering, unparished area",,"Hacton,""Elm Park"",Hylands,""St Andrew's",England
49,DG4,-3.95302513609467,55.3755560059172,610800,276340,"Dumfries and Galloway",,,"Mid and Upper Nithsdale",Scotland
61,CT20,1.16343241987578,51.0798361788821,135928,621674,"Folkestone and Hythe","Folkestone,Hythe,Sandgate",Kent,"Folkestone Central"",""Folkestone Harbour"",Cheriton,""Sandgate & West Folkestone"",Hythe",England
77,PO39,-1.54015813793103,50.6803589827586,86845,432585,"Isle of Wight",Totland,,Totland,England
101,LL74,-4.22940262820513,53.3191729358974,382567,251593,"Isle of Anglesey",Llanfair-Mathafarn-Eithaf,,Lligwy,Wales
111,KY11,-3.41397802186589,56.0485688607872,684869,312023,Fife,,,"Dunfermline South"",Rosyth,Cowdenbeath,""Inverkeithing and Dalgety Bay"",""Dunfermline Central",Scotland
121,BA4,-2.53188867272727,51.1724296193939,141601,362911,Mendip,"Upton Noble"",Pilton,""Shepton Mallet"",Lamyatt,""Stoke St Michael"",Downhead,Croscombe,Leigh-on-Mendip,Cranmore,Batcombe,Doulting,Evercreech,Pylle,""Milton Clevedon"",Ditcheat,""St Cuthbert Out"",""Witham Friary"",""West Bradley"",""East Pennard"",""North Wootton"",Lydford-on-Fosse,Ashwick,Wanstrow",Somerset,"Postlebury,""Croscombe and Pilton"",""The Pennards and Ditcheat"",Creech,""Shepton East"",""Shepton West"",""Cranmore, Doulting and Nunney"",""Butleigh and Baltonsborough"",""Ashwick, Chilcompton and Stratton"",""Coleford and Holcombe",England
132,OX28,-1.48599267816093,51.786960998723,209936,435551,"West Oxfordshire","Hailey,Witney,Ducklington,Curbridge",Oxfordshire,"Witney East"",""Witney West"",""Hailey, Minster Lovell and Leafield"",""Witney North"",""Witney South"",Ducklington,""Witney Central",England
136,LL37,-4.0839799,52.66597455,309622,259167,Gwynedd,Llangelynin,,Llangelynin,Wales
165,BT44,-6.28782686541245,54.9722071823445,415212,309677,"Mid Ulster"",""Causeway Coast and Glens"",""Mid and East Antrim",,,"Portglenone,Glenravel,""Loughguile and Stranocum"",""Carnlough and Glenarm"",""Clogh Mills"",Bellaghy,Lurigethan,Kirkinriola,""Tamlaght O'Crilly"",Valley,Grange,Maine,""Torr Head and Rathlin"",Dunloy,Rasharkin,Slemish","Northern Ireland"
182,BS34,-2.56664272340426,51.5235687955082,180669,360783,"Bristol, City of"",""South Gloucestershire","Filton,Winterbourne,""Bristol, City of, unparished area"",Patchway,""Stoke Gifford"",""Bradley Stoke"",""Stoke Lodge and The Common"",Almondsbury",,"Patchway Coniston"",Filton,""Stoke Park & Cheswick"",""Bradley Stoke South"",Winterbourne,""Bradley Stoke North"",""Stoke Gifford"",""Henbury and Brentry"",""Charlton & Cribbs",England
187,PA66,-6.3528985,56.328739125,723665,131018,"Argyll and Bute",,,"Oban South and the Isles",Scotland
201,BD11,-1.67569604240283,53.7522622650177,428481,421482,"Leeds,Kirklees,Bradford","Drighlington,""Bradford, unparished area"",""Kirklees, unparished area",,"Morley North"",Tong,""Birstall and Birkenshaw"",Cleckheaton",England
211,LL18,-3.4761945553719,53.3103243520661,380281,301741,"Conwy,Denbighshire,Flintshire","Waen,Whitford,Rhuddlan,Cwm,""Kinmel Bay and Towyn"",Rhyl,Dyserth,Bodelwyddan,""Trelawnyd and Gwaenysgor",,"Tremeirchion,""Rhyl East"",Whitford,Rhuddlan,""Kinmel Bay"",Dyserth,Bodelwyddan,""Rhyl South"",""Rhyl South West"",""Rhyl South East"",""Rhyl West"",""Trelawnyd and Gwaenysgor",Wales
219,BH10,-1.892942390625,50.7595795703124,95559,407647,"Bournemouth, Christchurch and Poole","Bournemouth, Christchurch and Poole, unparished area",,"Kinson,""Redhill & Northbourne"",""Wallisdown & Winton West"",Moordown,""Muscliff & Strouden Park",England
224,AB51,-2.40360525891341,57.2876709702887,821969,375768,Aberdeenshire,,,"Inverurie and District"",""Westhill and District"",""Turriff and District"",""Huntly, Strathbogie and Howe of Alford"",""East Garioch"",""West Garioch"",""Mid Formartine",Scotland
418,PA75,-6.11506889655173,56.61256,754322,147601,"Argyll and Bute",,,"Oban South and the Isles",Scotland
147,CT12,1.36944333462282,51.3433808259188,165867,634756,Thanet,"Broadstairs and St. Peters"",Monkton,Manston,Ramsgate,Acol,Minster,Cliffsend",Kent,"Cliffsend and Pegwell"",Newington,""Thanet Villages"",""St Peters"",""Central Harbour"",Northwood",England
154,BS41,-2.65354572959184,51.4220490612245,169429,354654,"North Somerset"",""Bath and North East Somerset","Chew Magna"",Dundry,""Long Ashton",,"Winford,""Chew Valley"",""Long Ashton",England
169,G81,-4.40773913580247,55.9138722613169,671595,249611,"West Dunbartonshire"",""East Dunbartonshire",,,"Clydebank Waterfront"",Kilpatrick,""Clydebank Central"",""Bearsden North",Scotland
177,BS36,-2.48644134475807,51.5257471854839,180871,366349,"South Gloucestershire","Frampton Cotterell"",Pucklechurch,Winterbourne,""Emersons Green"",Westerleigh,""Downend and Bromley Heath",,"Frampton Cotterell"",Winterbourne,""Frenchay & Downend"",""Boyd Valley"",""Emersons Green",England
193,KY16,-2.82223075290697,56.3425340232558,716991,349273,Fife,,,"Cupar,""Tay Bridgehead"",""East Neuk and Landward"",""St Andrews",Scotland
204,SK15,-2.04691174887218,53.4870692586466,398929,396984,Tameside,"Mossley,""Tameside, unparished area",,"Mossley,""Stalybridge South"",""Stalybridge North"",""Ashton St Michael's"",""Dukinfield Stalybridge"",Longdendale",England
218,KT24,-0.429705105691056,51.2701752818428,153506,509642,Guildford,"Effingham,Shere,Ripley,""West Horsley"",""East Horsley",Surrey,"Effingham,""Clandon and Horsley"",Tillingbourne,Lovelace",England
229,L3,-2.98442688489209,53.4084060935252,390627,334656,Liverpool,"Liverpool, unparished area",,"Everton,Riverside,Central,Kirkdale,""St Michael's",England
236,TR3,-5.11234263975155,50.2174104451345,39904,178064,Cornwall,"Kenwyn,Truro,""St. Gluvias"",Stithians,Mylor,Perranarworthal,Kea,Feock,Gwennap",,"Carharrack, Gwennap and St Day"",""Truro Redannick"",""Lanner and Stithians"",""Feock and Playing Place"",""Mabe, Perranarworthal and St Gluvias"",""Threemilestone and Gloweth"",""Penryn East and Mylor"",""Chacewater, Kenwyn and Baldhu",England
248,MK11,-0.84094002255639,52.051235274436,239838,479576,"Milton Keynes","Fairfields,""Abbey Hill"",""Stony Stratford",,"Bradwell,""Stony Stratford",England
216,CA22,-3.53287517472119,54.4806396579926,510558,300780,Copeland,"Lowside Quarter"",Haile,Beckermet,""Ennerdale and Kinniside"",""St. Bees"",Egremont,Ponsonby",Cumbria,"Arlecdon & Ennerdale"",Beckermet,""Gosforth & Seascale"",Egremont,""St Bees"",""Moor Row & Bigrigg",England
256,PL15,-4.39727134292866,50.6330403767209,84228,230562,"Torridge,""West Devon"",Cornwall","Jacobstow,""North Tamerton"",Lifton,Tresmeer,Launceston,Broadwoodwidger,Warbstow,""Lawhitton Rural"",""St. Stephens by Launceston Rural"",""St. Giles on the Heath"",Werrington,Egloskerry,""St. Thomas the Apostle Rural"",Northcott,""North Petherwin"",Tremaine,Bradstone,Linkinhorne,Davidstow,""St. Neot"",""St. Clether"",Lezant,Trewen,Boyton,Altarnun,""North Hill"",Lewannick,""South Petherwin"",Treneglos,Laneast",Devon,"Launceston North and North Petherwin"",Broadheath,Tintagel,Lynher,""Launceston Central"",""St Cleer"",Camelford,""Launceston South"",Stokeclimsland,Altarnun,Tamarside,Poundstock",England
275,IV27,-4.79663250793651,58.2759907301587,935385,236103,Highland,,,"North, West and Central Sutherland",Scotland
285,WV10,-2.11340293661972,52.6191885,302385,392419,"Wolverhampton,""South Staffordshire","Hilton,Penkridge,Shareshill,""Wolverhampton, unparished area"",Hatherton,""Brewood and Coven"",Saredon,Featherstone,Essington",Staffordshire,"Heath Town"",Oxley,""Fallings Park"",""Bushbury North"",""Bushbury South and Low Hill"",""Brewood and Coven"",""Huntington and Hatherton"",""Cheslyn Hay North and Saredon"",""Penkridge South East"",Essington,""Featherstone and Shareshill"",""St Peter's",England
293,LN9,-0.111862674479167,53.2174309817708,370594,526170,"East Lindsey","High Toynton"",Minting,Gautby,""Stixwould and Woodhall"",""Lusby with Winceby"",""Greetham with Somersby"",""West Ashby"",Roughton,""Mareham on the Hill"",Thimbleby,Maidenwell,""Edlington with Wispington"",Haltham,Horncastle,Belchford,Baumber,Hameringham,""Low Toynton"",Scrivelsby,""Great Sturton"",Asterby,Langton,Fulletby,Tetford,Horsington,Hemingby",Lincolnshire,"Roughton,Horncastle,Legbourne,Hagworthingham,""Tetford & Donington",England
306,ME17,0.612618209825998,51.2330379918117,151451,582493,"Maidstone,Ashford","Ulcombe,Leeds,Otterden,""Sutton Valence"",Harrietsham,Coxheath,Otham,Lenham,Wormshill,Frinsted,Headcorn,Loose,Langley,Linton,Wichling,Thurnham,""Broomfield and Kingswood"",""Boughton Malherbe"",""Boughton Monchelsea"",Hollingbourne,""East Sutton"",""Chart Sutton"",Hucking,Charing",Kent,"Harrietsham and Lenham"",Leeds,""Boughton Monchelsea and Chart Sutton"",""Coxheath and Hunton"",Headcorn,Loose,""Downswood and Otham"",""Park Wood"",""Upper Weald"",""Sutton Valence and Langley"",""North Downs"",""Detling and Thurnham",England
314,CA18,-3.3911108,54.35431016,496312,309687,Copeland,"Muncaster,Waberthwaite",Cumbria,"Black Combe & Scafell",England
322,EH10,-3.21110820900692,55.9198230912241,670300,324407,"Midlothian,""City of Edinburgh",,,"Morningside,""Midlothian West"",Fountainbridge/Craiglockhart,""City Centre"",Colinton/Fairmilehead,Southside/Newington",Scotland
158,TN14,0.157487972318339,51.2978453044983,157623,550511,"Bromley,Sevenoaks","Dunton Green"",Kemsing,Chevening,""Sevenoaks Weald"",Knockholt,Riverhead,""Sundridge with Ide Hill"",Halstead,""Badgers Mount"",Leigh,Chiddingstone,Sevenoaks,Otford,""Bromley, unparished area"",Shoreham,Brasted",Kent,"Sevenoaks Kippington"",Kemsing,Darwin,""Brasted, Chevening and Sundridge"",""Otford and Shoreham"",""Crockenhill and Well Hill"",""Sevenoaks Eastern"",""Sevenoaks Northern"",""Sevenoaks Town and St John's"",""Halstead, Knockholt and Badgers Mount"",""Chelsfield and Pratts Bottom"",""Dunton Green and Riverhead"",""Penshurst, Fordcombe and Chiddingstone"",""Seal and Weald"",""Leigh and Chiddingstone Causeway",England
168,EH52,-3.48544879737335,55.9382733076923,672688,307307,"West Lothian"",""City of Edinburgh",,,"Linlithgow,""Broxburn, Uphall and Winchburgh"",""Whitburn and Blackburn"",Almond,Bathgate,""East Livingston and East Calder",Scotland
397,LL25,-3.87878112765958,53.0542408297872,352426,274172,Conwy,"Bro Machno"",Dolwyddelan,Betws-y-Coed",,"Uwch Conwy"",Betws-y-Coed",Wales
181,SP7,-2.18409503414634,51.0049633365854,122858,387179,"Wiltshire,Dorset","East Orchard"",""Donhead St. Mary"",""Melbury Abbas"",""West Tisbury"",""Compton Abbas"",""Berwick St. John"",""Sedgehill and Semley"",""Margaret Marsh"",Gillingham,Shaftesbury,""West Orchard"",Motcombe,Cann,""Stour Provost"",""Donhead St. Andrew"",""Fontmell Magna",,"Shaftesbury Town"",Tisbury,""Fovant and Chalke Valley"",Gillingham,""Nadder and East Knoyle"",Beacon",England
188,DA17,0.149464128939828,51.4859396074498,178522,549339,"Bexley,Dartford","Dartford, unparished area"",""Bexley, unparished area",Kent,"West Heath"",Belvedere,Erith,""Northumberland Heath"",""West Hill",England
197,L34,-2.815382,53.4355245640449,393503,345928,"St. Helens"",Knowsley","Knowsley, unparished area"",Knowsley,Prescot,Whiston,Eccleston,Windle",,"St Michaels"",Rainford,""Prescot South"",Stockbridge,Eccleston,Northwood,""Prescot North",England
207,SS9,0.651788914231857,51.5547417964185,187316,583934,"Southend-on-Sea,""Castle Point"",Rochford","Castle Point, unparished area"",""Southend-on-Sea, unparished area"",Leigh-on-Sea,Rochford,Rayleigh",Essex,"Victoria,""St James"",""Eastwood Park"",""Roche South"",Chalkwell,Belfairs,""West Leigh"",Leigh,Lodge,""St Laurence"",""Blenheim Park",England
233,EC2P,-0.1107369125,51.5242122625,182280,531163,"Islington,""City of London","Islington, unparished area"",""City of London, unparished area",,"Bassishaw,Bishopsgate,Clerkenwell",England
225,GU30,-0.80412042662116,51.0754041808874,131355,483875,"East Hampshire"",Chichester","Bramshott and Liphook"",Linchmere,Headley,Fernhurst,Milland,Linch","Hampshire,""West Sussex","Bramshott & Liphook"",Headley,Fernhurst",England
241,NP22,-3.25824158221477,51.7712746828859,208816,313277,"Blaenau Gwent"",Caerphilly","Rhymney,Tredegar,Rassau",,"Georgetown,Moriah,""Tredegar Central and West"",""Twyn Carno"",Sirhowy,Rassau,Pontlottyn",Wales
249,SA99,-3.94544558461539,51.6699971538461,198595,265563,Swansea,Mynyddbach,,Mynyddbach,Wales
263,EX13,-3.00718303660566,50.7871164925124,99100,329098,"South Somerset"",Dorset,""East Devon","Axmouth,""All Saints"",Chardstock,Stockland,Musbury,Kilmington,Colyton,Wambrook,Thorncombe,Hawkchurch,Axminster,""Combpyne Rousdon"",Membury,Uplyme,""Wootton Fitzpaine"",Dalwood,Shute","Devon,Somerset","Blackdown & Tatworth"",""Coly Valley"",Newbridges,""Dunkeswell & Otterhead"",Trinity,Axminster,Yarty,""Marshwood Vale",England
272,DY10,-2.22405528274428,52.3861321070686,276479,384847,"Wyre Forest"",Wychavon,Bromsgrove,""South Staffordshire","Broome,Hartlebury,Stone,Kinver,""Churchill and Blakedown"",Hagley,Kidderminster,""Elmley Lovett"",""Chaddesley Corbett"",""Wolverley and Cookley","Staffordshire,Worcestershire","Franche & Habberley North"",Hartlebury,""Wyre Forest Rural"",Broadwaters,""Aggborough & Spennells"",""Offmore & Comberton"",""Foley Park & Hoobrook"",Kinver,""Lovett and North Claines"",""Hagley West"",""Blakebrook & Habberley South",England
280,SG16,-0.298588039548023,52.0145815819209,236494,516860,"Central Bedfordshire","Stondon,Clifton,Henlow",,Arlesey,England
289,PR9,-2.96862329649309,53.6596565260361,418565,336086,"West Lancashire"",Sefton","Tarleton,""North Meols"",""Sefton, unparished area"",Scarisbrick",Lancashire,"Norwood,Kew,Duke's,Tarleton,Meols,""North Meols"",Cambridge,Scarisbrick",England
301,BN1,-0.139507739130435,50.8422802117202,106399,531087,"Brighton and Hove"",Lewes,""Mid Sussex","Falmer,Poynings,""Brighton and Hove, unparished area"",Westmeston","East Sussex"",""West Sussex","Ditchling & Westmeston"",""Hangleton and Knoll"",""Hollingdean and Stanmer"",Withdean,""Moulsecoomb and Bevendean"",Patcham,Kingston,Goldsmid,""Queen's Park"",""Preston Park"",""Brunswick and Adelaide"",""St. Peter's and North Laine"",""Hurstpierpoint and Downs"",Regency",England
308,GL16,-2.6128151995842,51.7955699293139,210946,357834,"Monmouthshire,""Forest of Dean","Staunton Coleford"",""English Bicknor"",""West Dean"",Cinderford,Newland,Monmouth,Coleford",Gloucestershire,"Wyesham,""Cinderford West"",""Berry Hill"",""Newland & Sling"",Coleford,Bream","Wales,England"
171,E13,0.026579545126354,51.5278145252707,182935,540678,Newham,"Newham, unparished area",,"Boleyn,""East Ham South"",""Canning Town North"",""Green Street West"",""Plaistow South"",""Plaistow North"",""West Ham"",""Canning Town South"",""Green Street East",England
183,NE36,-1.44122152112676,54.9452275868545,561317,435891,"Sunderland,""South Tyneside","South Tyneside, unparished area"",""Sunderland, unparished area",,"Washington North"",""Boldon Colliery"",Primrose,""Cleadon and East Boldon"",""Fellgate and Hedworth",England
194,UB18,-0.402684,51.500719,179185,510969,Ealing,"Ealing, unparished area",,"Southall Green",England
206,HD1,-1.78894966706022,53.6468829811096,416728,414048,Kirklees,"Kirklees, unparished area",,"Greenhead,Newsome,Ashbrow,Dalton,""Crosland Moor and Netherton",England
212,BA3,-2.47865429063251,51.271669253803,152611,366704,"Bath and North East Somerset"",Mendip","Chilcompton,Emborough,""East Harptree"",Kilmersdon,""Stoke St Michael"",Hemington,Downhead,""Stratton on the Fosse"",Leigh-on-Mendip,Binegar,""Hinton Blewett"",Holcombe,""St Cuthbert Out"",Litton,Westfield,""Norton St Philip"",""Midsomer Norton"",Paulton,Coleford,""Chewton Mendip"",Mells,Ashwick,""Ston Easton"",Radstock",Somerset,"Radstock,""Chewton Mendip and Ston Easton"",""Rode and Norton St Philip"",Ammerdown,""St Cuthbert Out North"",Mendip,""Midsomer Norton Redfield"",Westfield,""Midsomer Norton North"",""Cranmore, Doulting and Nunney"",Paulton,""Ashwick, Chilcompton and Stratton"",""Coleford and Holcombe",England
222,S95,-1.4045009375,53.417985,391407,439675,"Rotherham,Sheffield","Rotherham, unparished area"",Ecclesfield,""Sheffield, unparished area",,"Darnall,""Boston Castle"",""East Ecclesfield",England
232,CF44,-3.4591411758794,51.7184225567839,203197,299299,"Merthyr Tydfil"",""Neath Port Talbot"",""Rhondda Cynon Taf"",Powys","Cyfarthfa,Rhigos,Blaengwrach,""Aberaman North"",Cwmbach,Ystradfellte,""Aberdare East"",Llwydcoed,""Aberdare West"",""Aberaman South"",Pen-y-waun,Hirwaun",,"Cyfarthfa,Tawe-Uchaf,Rhigos,Blaengwrach,""Aberaman North"",""Aberdare West/Llwydcoed"",Cwmbach,""Aberdare East"",""Aberaman South"",Pen-y-waun,Hirwaun",Wales
244,BS22,-2.92935826744186,51.3610577293869,162853,335390,"North Somerset","St. Georges"",Kewstoke,""Wick St. Lawrence"",Weston-super-Mare",,"Weston-super-Mare Winterstoke"",""Weston-super-Mare Kewstoke"",""Weston-super-Mare Milton"",""Weston-super-Mare South Worle"",""Wick St Lawrence & St Georges"",""Weston-super-Mare Hillside"",""Weston-super-Mare North Worle"",""Weston-super-Mare South"",""Weston-super-Mare Mid Worle",England
252,SE27,-0.102368291005291,51.4305620396825,171880,532014,Lambeth,"Lambeth, unparished area",,"Streatham Hill"",""Thurlow Park"",""Gipsy Hill"",""Knight's Hill",England
260,CA14,-3.53798202786376,54.6346749512384,527703,300824,"Copeland,Allerdale","Dean,""Arlecdon and Frizington"",Camerton,Distington,Lamplugh,Seaton,Winscales,""Great Clifton"",Greysouthen,""Little Clifton"",Workington",Cumbria,"Distington, Lowca & Parton"",""Arlecdon & Ennerdale"",""Moorclose & Moss Bay"",Dalton,""Harrington & Salterbeck"",""St Michael's"",""St John's"",""Seaton & Northside"",""Stainburn & Clifton",England
271,HU19,0.034374317948718,53.7233509692308,427136,534328,"East Riding of Yorkshire","Holmpton,Easington,Rimswell,Hollym,Patrington,Withernsea",,"South East Holderness",England
282,S32,-1.65103425728155,53.2945631116505,377568,423357,"Derbyshire Dales","Stoney Middleton"",Calver,Highlow,Offerton,Eyam,""Great Longstone"",Curbar,Froggatt,""Abney and Abney Grange"",Foolow,""Baslow and Bubnell"",Hathersage,Grindleford",Derbyshire,"Calver,""Hathersage and Eyam"",Bradwell,""Litton and Longstone"",Chatsworth",England
292,G83,-4.58705885760518,56.0122807961164,682949,238819,"Stirling,""West Dunbartonshire"",""Argyll and Bute",,,"Lomond,Leven,""Forth and Endrick"",""Lomond North"",""Trossachs and Teith"",""Helensburgh and Lomond South",Scotland
302,CV22,-1.2783811815889,52.3591091614124,273694,449239,Rugby,"Cawston,Dunchurch,""Rugby, unparished area",Warwickshire,"Paddox,Eastlands,""Rokeby and Overslade"",""New Bilton"",""Admirals and Cawston"",Bilton,Hillmorton,Dunsmore",England
311,HS3,-6.85123536,57.8773810666667,897872,112507,"Na h-Eileanan Siar",,,"Na Hearadh agus Ceann a Deas nan Loch",Scotland
321,NR1,1.30683155630631,52.6266497015763,308343,623902,"Broadland,""South Norfolk"",Norwich","Caistor St Edmund and Bixley"",""Thorpe St. Andrew"",""Norwich, unparished area"",Sprowston",Norfolk,"Mancroft,""Catton Grove"",Sewell,""Town Close"",Crome,""Poringland, Framinghams & Trowse"",""Thorpe St Andrew South East"",""Sprowston East"",""Thorpe Hamlet"",Lakenham",England
330,BT79,-7.20092484590165,54.6232069278689,375298,251663,"Mid Ulster"",""Fermanagh and Omagh"",""Derry City and Strabane",,,"Beragh,Owenkillew,Killyclogher,Strule,Dergmoney,Drumnakilly,Gortin,Camowen,Donaghmore,""Glenelly Valley"",Sixmilecross,Newtownsaville,Oaklands,Termon","Northern Ireland"
340,BN15,-0.325703458509142,50.8303475372714,104759,518008,Adur,"Adur, unparished area"",Lancing,Coombes,Sompting","West Sussex","Churchill,Marine,Widewater,Manor,""Mash Barn"",Cokeham,Peverel",England
316,TS8,-1.23286556032172,54.5216976300268,514315,449753,"Stockton-on-Tees,Middlesbrough,Hambleton","Seamer,""Stainton and Thornton"",""Middlesbrough, unparished area"",Nunthorpe,Newby,Maltby","North Yorkshire","Ingleby Barwick East"",Hemlington,""Marton West"",""Stainton & Thornton"",Kader,""Hutton Rudby"",""Coulby Newham"",Ladgate,Nunthorpe",England
186,LA6,-2.61024006174699,54.1752363298192,475670,360264,"Craven,""South Lakeland"",Lancaster","Preston Patrick"",""Hutton Roof"",""Burton in Lonsdale"",Leck,Arkholme-with-Cawood,Warton,Carnforth,Melling-with-Wrayton,Lupton,""Kirkby Lonsdale"",Burton-in-Kendal,Barbon,""Over Kellet"",Middleton,Holme,""Thornton in Lonsdale"",Borwick,Killington,Casterton,Tunstall,Whittington,""Nether Kellet"",Ingleton,Bentham,Mansergh,Halton-with-Aughton,""Priest Hutton"",Cantsfield,Beetham,Ireby,Burrow-with-Burrow","Cumbria,Lancashire,""North Yorkshire","Burton & Crooklands"",""Arnside & Milnthorpe"",""Carnforth & Millhead"",""Kendal Rural"",Warton,Kellet,""Upper Lune Valley"",""Sedbergh & Kirkby Lonsdale"",Bentham,Halton-with-Aughton,""Ingleton and Clapham",England
196,B30,-1.92774492715232,52.4219960198676,280447,405010,Birmingham,"Birmingham, unparished area",,"Bournbrook & Selly Park"",""King's Norton South"",""King's Norton North"",""Bournville & Cotteridge"",Stirchley,""Druids Heath & Monyhull",England
198,LL16,-3.43336174254317,53.1852074740974,366306,304315,"Conwy,Denbighshire","Aberwheeler,Trefnant,Llandyrnog,Llangynhafal,""Llanfair Talhaiarn"",Llanrhaeadr-yng-Nghinmeirch,Henllan,Denbigh,Nantglyn,Llanynys,Llannefydd,Bodfari,Llansannan",,"Tremeirchion,Trefnant,""Denbigh Upper/Henllan"",""Betws yn Rhos"",Llandyrnog,""Denbigh Central"",Llanrhaeadr-yng-Nghinmeirch,""Denbigh Lower"",""Llanbedr Dyffryn Clwyd/Llangynhafal"",Llansannan",Wales
208,TF13,-2.58171778217822,52.5789918168317,298068,360676,"Shropshire,""Telford and Wrekin","Easthope,Cardington,Sheinton,""Abdon and Heath"",Madeley,""Much Wenlock"",Munslow,Buildwas,Rushbury,Barrow,""Stanton Long"",Shipton,Monkhopton",,"Much Wenlock"",Burnell,""Severn Valley"",Corvedale,""Brown Clee"",""Madeley & Sutton Hill",England
240,DG5,-3.81105787906977,54.9212012232558,560002,284023,"Dumfries and Galloway",,,"Castle Douglas and Crocketford"",Abbey",Scotland
220,SN11,-1.99939607785235,51.4393931087248,171155,400138,Wiltshire,"Compton Bassett"",Bremhill,Calne,""Calne Without"",Hilmarton,""Lyneham and Bradenstoke"",Durnford,Heddington,Cherhill,""Clyffe Pypard",,"Calne North"",""Calne South and Cherhill"",""Calne Central"",""Bourne and Woodford Valley"",Lyneham,""Calne Chilvester and Abberd"",""Calne Rural",England
230,SY25,-3.93716885321101,52.2379690137615,261745,267815,Ceredigion,"Llangeitho,Pontarfynach,Lledrod,Nantcwnlle,""Ysbyty Ystwyth"",Llangybi,""Llanddewi Brefi"",Tregaron,""Ystrad Meurig"",""Ystrad Fflur",,"Llangeitho,Lledrod,""Llanfihangel Ystrad"",Melindwr,Llangybi,Tregaron",Wales
245,DD8,-2.9219074649629,56.6558463792251,751944,343579,Angus,,,"Arbroath West, Letham and Friockheim"",""Kirriemuir and Dean"",""Forfar and District"",""Brechin and Edzell",Scotland
258,HS1,-6.3814564296578,58.2126135589353,933241,142756,"Na h-Eileanan Siar",,,"Steòrnabhagh a Deas"",""Steòrnabhagh a Tuath",Scotland
265,HR4,-2.77140581291029,52.0904882669584,243853,347247,"Herefordshire, County of","Sarnesfield,""Staunton on Wye"",Dilwyn,""King's Pyon"",Yazor,""Bridge Sollers"",Weobley,Bishopstone,Byford,Kenchester,Burghill,""Birley with Upper Hill"",""Moreton on Lugg"",Breinton,""Brobury with Monnington on Wye"",""Mansell Lacy"",Dinmore,""Brinsop and Wormsley"",""Pipe and Lyde"",Wellington,""Stretton Sugwas"",Hereford,""Mansell Gamage"",""Canon Pyon"",Credenhill,""Holmer & Shelwick"",""Norton Canon",,"Stoney Street"",Weobley,Widemarsh,Castle,Queenswood,Whitecross,Bobblestock,Central,""Sutton Walls"",Holmer,Greyfriars,Credenhill,College,""Kings Acre",England
278,WF11,-1.2561579344894,53.7117684990366,424184,449193,"Selby,Wakefield","Darrington,Fairburn,""Wakefield, unparished area"",Birkin,Womersley,""Byram cum Sutton"",""Cridling Stubbs"",Beal,Brotherton","North Yorkshire","Knottingley,""Monk Fryston"",""Pontefract South"",""Pontefract North"",Whitley,""Byram & Brotherton",England
287,TN4,0.254842536363636,51.1456724844156,140906,557817,"Tunbridge Wells"",""Tonbridge and Malling","Southborough,""Tonbridge and Malling, unparished area"",""Tunbridge Wells, unparished area"",Rusthall,Speldhurst,Bidborough",Kent,"Broadwater,""Southborough and High Brooms"",Culverden,Medway,""Southborough North"",""Pantiles and St Mark's"",Vauxhall,""Speldhurst and Bidborough"",Rusthall,""St John's",England
295,EC1V,-0.097843717525773,51.5267979587629,182590,532051,"Hackney,Islington","Islington, unparished area"",""Hackney, unparished area",,"Bunhill,Clerkenwell,""Hoxton West"",""Hoxton East & Shoreditch"",""St Peter's",England
304,OX13,-1.35765784070796,51.6760808915929,197675,444512,"Vale of White Horse"",""West Oxfordshire","Marcham,Appleton-with-Eaton,Radley,Sunningwell,Longworth,Garford,Drayton,Besselsleigh,""St Helen Without"",Frilford,""Hinton Waldrist"",""Fyfield and Tubney"",""Abingdon on Thames"",Northmoor,Milton,Wootton,""Kingston Bagpuize with Southmoor"",Steventon",Oxfordshire,"Kingston Bagpuize"",Marcham,""Kennington & Radley"",Hendreds,""Steventon & the Hanneys"",""Standlake, Aston and Stanton Harcourt"",Thames,Drayton,""Abingdon Caldecott"",""Botley & Sunningwell"",Wootton",England
191,TN32,0.490246288702929,50.9790775983263,122915,574907,Rother,"Brightling,Bodiam,Sedlescombe,Battle,""Salehurst and Robertsbridge"",Whatlington,Ewhurst,Mountfield","East Sussex","North Battle, Netherfield & Whatlington"",""Sedlescombe & Westfield"",""Burwash & the Weald"",""Northern Rother"",Robertsbridge",England
200,B67,-1.97883137044146,52.4855662533589,287516,401534,Sandwell,"Sandwell, unparished area",,"St Pauls"",Smethwick,Bristnall,Abbey,""Soho and Victoria",England
210,GU21,-0.580509048951049,51.3210418802447,158949,499013,"Surrey Heath"",Woking","Bisley,""Woking, unparished area",Surrey,"Mount Hermon"",""Bisley & West End"",Horsell,Heathlands,Knaphill,""Goldsworth Park"",""St John's"",Canalside",England
221,TF12,-2.48178675,52.612009809322,301690,367474,Shropshire,"Barrow,Broseley",,"Much Wenlock"",Broseley",England
223,CM20,0.102730003210273,51.7755191396469,210629,545167,"Harlow,""East Hertfordshire","Sawbridgeworth,""High Wych"",Gilston,Eastwick,""Harlow, unparished area","Essex,Hertfordshire","Sawbridgeworth,""Old Harlow"",""Much Hadham"",Hunsdon,""Little Parndon and Hare Street"",Toddbrook,""Mark Hall"",Netteswell",England
250,FK17,-4.22004690225564,56.2399235789474,707483,262507,Stirling,,,"Trossachs and Teith",Scotland
234,CO5,0.820399995726496,51.815148150641,216712,594503,"Braintree,Maldon,Colchester","Feering,""East Donyland"",Peldon,""Layer Marney"",Birch,Tiptree,Copford,""East Mersea"",""Great and Little Wigborough"",Fingringhoe,""Tolleshunt Knights"",""Tolleshunt D'Arcy"",""Colchester, unparished area"",""West Mersea"",Messing-cum-Inworth,""Great Braxted"",""Layer Breton"",Langenhoe,Abberton,Kelvedon",Essex,"Old Heath and The Hythe"",Tiptree,""Great Totham"",""Tolleshunt D'Arcy"",""Marks Tey and Layer"",""Mersea and Pyefleet"",""Kelvedon & Feering",England
242,G65,-4.0576438475,55.97348616,677522,271686,"East Dunbartonshire"",""North Lanarkshire",,,"Kirkintilloch East and North and Twechar"",Kilsyth",Scotland
253,BN22,0.283829656058752,50.7895948494493,101377,561071,"Wealden,Eastbourne","Eastbourne, unparished area"",""Willingdon and Jevington","East Sussex","Upper Willingdon"",Ratton,""Hampden Park"",Upperton,Devonshire,""St Anthony's",England
259,HP23,-0.661092423214285,51.7955529267857,211614,492432,"Dacorum,Buckinghamshire","The Lee"",""Tring Rural"",Northchurch,""Drayton Beauchamp"",""Cholesbury-cum-St Leonards"",Marsworth,Wigginton,Wendover,Buckland,""Aston Clinton"",Tring,Pitstone,Aldbury",Hertfordshire,"Northchurch,""Aston Clinton and Bierton"",""Chiltern Ridges"",""Wendover, Halton and Stoke Mandeville"",""Aldbury and Wigginton"",Ivinghoe,""Tring West and Rural"",""Tring Central"",""Tring East",England
273,HR6,-2.77344930808081,52.2335258270202,259765,347275,"Herefordshire, County of","Middleton on the Hill"",""Ford and Stoke Prior"",""Hope under Dinmore"",Pembridge,Dilwyn,Laysters,""Rodd, Nash and Little Brampton"",Shobdon,""Hatfield and Newhampton"",Wigmore,Pudlestone,Weobley,Kimbolton,""Birley with Upper Hill"",Humber,Leominster,Eardisland,Kingsland,Byton,""Newton (Queenswood Ward)"",Luston,Wellington,Thornbury,""Croft and Yarpole"",""Staunton on Arrow"",Lucton,""Monkland and Stretford"",Eyton,""Eye, Moreton and Ashton"",Aymestrey,Bodenham,""Docklow and Hampton Wafer",,"Leominster South"",Weobley,""Leominster West"",Bircher,""Leominster East"",Hampton,Arrow,Queenswood,Mortimer,""Leominster North & Rural",England
283,TF1,-2.50278329532711,52.7032166906542,311845,366123,"Telford and Wrekin","Lawley and Overdale"",Oakengates,""Hadley & Leegomery"",Wellington,""Wrockwardine Wood and Trench"",Ketley,Wrockwardine,""Little Wenlock",,"Shawbirch,Haygate,""Hadley & Leegomery"",Ercall,Dothill,""Oakengates & Ketley Bank"",Arleston,""Apley Castle"",""Wrockwardine Wood & Trench"",Wrockwardine,Park,College,""Ketley & Overdale",England
294,LD1,-3.36625551073986,52.2608922076373,263405,306846,Powys,"Llanfihangel Rhydithon"",Llangunllo,Llanyre,Llanwrthwl,Penybont,Llanafanfawr,""Disserth and Trecoed"",""New Radnor"",""Llanddewi Ystradenny"",Nantmel,Llanbister,Glascwm,""Llanbadarn Fynydd"",""Abbey Cwmhir"",""Llandrindod Wells"",""Llanbadarn Fawr",,"Llanelwedd,""Llandrindod East/Llandrindod West"",Llangunllo,Llanyre,""Llandrindod South"",Beguildy,Llanafanfawr,""Llandrindod North"",""Disserth and Trecoed"",""Old Radnor"",Nantmel,""Llanbadarn Fawr",Wales
305,SA4,-4.04855372484417,51.6732397070347,199151,258443,"Swansea,Carmarthenshire","Llangyfelach,Llwchwr,Llannon,Llanedi,Penllergaer,Llangennech,Mawr,""Llanrhidian Higher"",""Three Crosses"",""Pontlliw and Tircoed"",Pontardulais,Gorseinon,Ilston,Gowerton,""Grovesend and Waungron",,"Llangyfelach,Penclawdd,Gower,Llannon,Penllergaer,Tycroes,Llangennech,Mawr,Penyrheol,""Upper Loughor"",Hendy,Pontardulais,Fairwood,Gorseinon,Kingsbridge,Gowerton,""Lower Loughor",Wales
315,SK3,-2.17220516336634,53.3982692013202,389062,388646,Stockport,"Stockport, unparished area",,"Stepping Hill"",""Cheadle Hulme North"",""Edgeley and Cheadle Heath"",""Davenport and Cale Green"",""Brinnington and Central",England
325,TW2,-0.354515775768536,51.4463770325497,173215,514447,"Hounslow,""Richmond upon Thames","Hounslow, unparished area"",""Richmond upon Thames, unparished area",,"Whitton,Heathfield,""West Twickenham"",""South Twickenham"",""St Margarets and North Twickenham"",""Fulwell and Hampton Hill"",Isleworth",England
202,L39,-2.89635375198939,53.5617148859416,407606,340725,"St. Helens"",""West Lancashire","Halsall,""West Lancashire, unparished area"",Rainford,""Great Altcar"",Bickerstaffe,Aughton,Downholland,""Lathom South",Lancashire,"Halsall,Rainford,""Aughton Park"",Knowsley,Derby,Bickerstaffe,Scott,""Aughton and Downholland",England
213,IV26,-5.1938622,57.92675484,897516,210970,Highland,,,"Wester Ross, Strathpeffer and Lochalsh",Scotland
231,DN2,-1.10261755755396,53.5336630215827,404486,459576,Doncaster,"Barnby Dun with Kirk Sandall"",""Doncaster, unparished area"",Edenthorpe",,"Edenthorpe & Kirk Sandall"",""Wheatley Hills & Intake"",Town,""Hexthorpe & Balby North",England
243,AB37,-3.35268081609195,57.3273899310345,827127,318649,"Highland,Moray",,,"Badenoch and Strathspey"",""Speyside Glenlivet",Scotland
257,BH3,-1.88335350769231,50.7365793692308,93002,408327,"Bournemouth, Christchurch and Poole","Bournemouth, Christchurch and Poole, unparished area",,"Talbot & Branksome Woods"",""Winton East",England
267,B14,-1.88982207455013,52.4173404125963,279932,407590,"Birmingham,Bromsgrove,Solihull","Birmingham, unparished area"",""Solihull, unparished area"",Wythall",Worcestershire,"Shirley West"",Hollywood,""King's Norton South"",Moseley,""Brandwood & King's Heath"",""Wythall West"",Billesley,""Druids Heath & Monyhull"",""Highter's Heath",England
276,M21,-2.27296889163238,53.4380251399177,393506,381963,"Trafford,Manchester","Trafford, unparished area"",""Manchester, unparished area",,"Longford,""Chorlton Park"",""Whalley Range"",Chorlton",England
288,HU9,-0.289260403558054,53.7560725102996,430214,512888,"Kingston upon Hull, City of","Kingston upon Hull, City of, unparished area",,"Ings,Drypool,Marfleet,""St Andrew's & Docklands"",""Longhill & Bilton Grange"",Southcoates",England
300,BA6,-2.70783641894353,51.1420264754098,138323,350579,"Mendip,Sedgemoor","Meare,Baltonsborough,Sharpham,Street,""West Pennard"",Glastonbury,""St Cuthbert Out"",Butleigh,""West Bradley"",Ashcott,Godney,Lydford-on-Fosse",Somerset,"Moor,""Wookey and St Cuthbert Out West"",""The Pennards and Ditcheat"",""Glastonbury St Mary's"",""East Polden"",""Glastonbury St Benedict's"",""Glastonbury St John's"",""Butleigh and Baltonsborough"",""Glastonbury St Edmund's"",""Street North",England
310,LA23,-2.91291748282828,54.3714382969697,497709,340789,"South Lakeland","Crook,Hugill,Windermere,""Crosthwaite and Lyth"",""Cartmel Fell"",Lakes",Cumbria,"Kendal Rural"",Windermere,""Bowness & Levens"",""Ambleside & Grasmere",England
320,DA2,0.233309222879685,51.4321548500986,172716,555342,"Sevenoaks,Dartford","Dartford, unparished area"",Bean,""Sutton-at-Hone and Hawley"",Stone,Hextable,Wilmington,Darenth,""Longfield and New Barn",Kent,"Stone House"",""Maypole & Leyton Cross"",""Wilmington, Sutton-at-Hone & Hawley"",Hextable,""Bean & Village Park"",""Longfield, New Barn & Southfleet"",Brent,""Stone Castle"",Darenth,""Joyden's Wood"",""West Hill",England
334,HU17,-0.429091089041096,53.8470703998288,440125,503445,"East Riding of Yorkshire","Tickton,Leconfield,""Dalton Holme"",Lockington,Molescroft,Beverley,Etton,Routh,Catwick,Woodmansey,Leven,Walkington,Rowley,""Bishop Burton"",Riston,""Cherry Burton"",Wawne",,"Mid Holderness"",""Beverley Rural"",""St Mary's"",Dale,""Minster and Woodmansey",England
345,S45,-1.42202702004454,53.1654632538975,363304,438737,"North East Derbyshire"",Chesterfield,Bolsover","Ault Hucknall"",Ashover,""Clay Cross"",""Chesterfield, unparished area"",Pilsley,""Holymoorside and Walton"",Stretton",Derbyshire,"Ault Hucknall"",Ashover,""Clay Cross South"",""St Leonard's"",""Clay Cross North"",""Brampton & Walton"",""Pilsley & Morton",England
350,EN6,-0.17669746509009,51.6994913558559,201656,526102,"Hertsmere,Broxbourne,""Welwyn Hatfield"",Enfield","Shenley,""Hertsmere, unparished area"",""North Mymms"",""Enfield, unparished area"",Ridge,""Broxbourne, unparished area"",""South Mimms"",""Northaw and Cuffley",Hertfordshire,"Shenley,Chase,""Goffs Oak"",""Potters Bar Oakmere"",""Potters Bar Furzefield"",""Brookmans Park and Little Heath"",""Bentley Heath & The Royds"",""Potters Bar Parkfield"",""Northaw and Cuffley",England
354,NR20,0.980929476306196,52.7232911373026,318129,601407,"Breckland,""North Norfolk"",Broadland,""South Norfolk","Foulsham,Horningtoft,Bylaugh,Dereham,Stanfield,Billingford,Mileham,""East Tuddenham"",Whissonsett,Stibbard,Mattishall,Hoe,Gressenhall,Twyford,Elsing,Themelthorpe,Foxley,Hindolveston,Bawdeswell,Guestwick,Hockering,""North Elmham"",""North Tuddenham"",Bintree,Sparham,Gateley,""Brandon Parva, Coston, Runhall and Welborne"",Colkirk,Guist,Beetley,Brisley,Thurning,""Wood Norton"",""Swanton Morley",Norfolk,"Upper Wensum"",Stibbard,Mattishall,Lincoln,""Dereham Withburga"",""Dereham Neatherd"",Hermitage,Wicklewood,Eynesford",England
360,HD9,-1.79723738997451,53.5804077026338,409332,413522,"Kirklees,Barnsley","Holme Valley"",""Kirklees, unparished area"",Dunford,Meltham",,"Newsome,""Holme Valley South"",""Holme Valley North"",""Penistone West",England
368,L4,-2.96129001387137,53.437828997478,393880,336238,Liverpool,"Liverpool, unparished area",,"Everton,Anfield,County,Clubmoor,Kirkdale,""Tuebrook and Stoneycroft",England
203,SM1,-0.192845738372093,51.3669912476744,164652,525899,Sutton,"Sutton, unparished area",,"Sutton West"",Stonecot,Cheam,""Sutton Central"",""Carshalton Central"",""St Helier"",""The Wrythe"",""Sutton North",England
214,TA7,-2.91085166164154,51.1315747336683,137318,336362,"South Somerset"",""Somerset West and Taunton"",Sedgemoor","Chilton Polden"",Bawdrip,""Curry Rivel"",""Bridgwater Without"",Catcott,Puriton,Chedzoy,""North Petherton"",Moorlinch,Shapwick,Mark,Greinton,Burtle,Westonzoyland,Burrowbridge,Lyng,Othery,Ashcott,Stawell,Woolavington,Aller,Cossington,Middlezoy,Edington",Somerset,"Wedmore and Mark"",""King's Isle"",""North Petherton"",""North Curry & Ruishton"",""Puriton and Woolavington"",""Turn Hill"",""Curry Rivel, Huish & Langport"",""East Polden"",""West Polden",England
226,L29,-2.98551690909091,53.5076126818182,401665,334736,Sefton,"Ince Blundell"",Sefton,Thornton",,"Ravenmeols,Manor,Park",England
270,PR3,-2.71905912085308,53.8688035781991,441643,352818,"Wyre,Lancaster,""Ribble Valley"",Preston,Fylde","Preston, unparished area"",Winmarleigh,""Little Eccleston-with-Larbreck"",Whittingham,Chipping,Dutton,Barton,Bowland-with-Leagram,""Myerscough and Bilsborrow"",Cabus,""Nether Wyresdale"",Inskip-with-Sowerby,""Great Eccleston"",Preesall,Garstang,Forton,Broughton,Barnacre-with-Bonds,""Out Rawcliffe"",""Upper Rawcliffe-with-Tarnacre"",Nateby,Catterall,Ribchester,Longridge,Goosnargh,Cockerham,Kirkland,Bleasdale,Salesbury,Hothersall,Claughton,Thornley-with-Wheatley,Pilling",Lancashire,"Ellel,""Derby & Thornley"",Chipping,""Alston & Hothersall"",Wyresdale,""Brock with Catterall"",""Great Eccleston"",Preesall,Garstang,Dilworth,""City Centre"",Ribchester,Greyfriars,Calder,""Clayton-le-Dale & Salesbury"",""Hurst Green & Whitewell"",""Elswick and Little Eccleston"",""Preston Rural North"",""Preston Rural East"",Pilling",England
291,MK12,-0.816647501730104,52.0583252041522,240654,481229,"Milton Keynes","Wolverton and Greenleys"",""Abbey Hill",,"Wolverton,Bradwell",England
298,NP8,-3.15376334391535,51.8616355026455,218747,320645,"Monmouthshire,Powys","Llanfoist Fawr"",Abergavenny,Crickhowell,Llangynidr,Llangattock,""The Vale of Grwyney"",""Llanfihangel Cwmdu with Bwlch and Cathedine",,"Llanfoist Fawr"",Bwlch,Crickhowell,Llangynidr,Llangattock,Grofield",Wales
307,W1J,-0.145015245689655,51.5079063477012,180405,528832,"Westminster,Islington","Islington, unparished area"",""Westminster, unparished area",,"West End"",Clerkenwell,""St James's",England
318,DL12,-1.98589494467497,54.5722240511757,519671,401014,"Richmondshire,Eden,""County Durham","Marwood,Winston,Westwick,Rokeby,Romaldkirk,Brignall,Hunderthwaite,""Wycliffe with Thorpe"",Lartington,Startforth,Whorlton,""Egglestone Abbey"",""Langleydale and Shotton"",Holwick,Boldron,Bowes,Gilmonby,Scargill,Dufton,""Forest and Frith"",Newbiggin,""Streatlam and Stainton"",""Barnard Castle"",Newsham,Mickleton,Cotherstone,Lunedale,""Middleton in Teesdale"",Eggleston","Cumbria,""North Yorkshire","Barnard Castle East"",""Barnard Castle West"",""Long Marton"",""Gilling West",England
329,SW1X,-0.156609736077482,51.4982007118644,179306,528054,"Westminster,Wandsworth,""Kensington and Chelsea","Wandsworth, unparished area"",""Westminster, unparished area"",""Kensington and Chelsea, unparished area",,"Brompton & Hans Town"",Queenstown,""Knightsbridge and Belgravia"",""Royal Hospital",England
336,RH17,-0.11948701,51.0223471957143,126459,531986,"Wealden,Lewes,Horsham,""Mid Sussex","Twineham,""Turners Hill"",Bolney,""West Hoathly"",""Ansty and Staplefield"",Cuckfield,Slaugham,Cowfold,Danehill,""Hurstpierpoint and Sayers Common"",""Haywards Heath"",Wivelsfield,Ardingly,""Lower Beeding"",""Lindfield Rural"",""Horsted Keynes"",Balcombe","East Sussex"",""West Sussex","Nuthurst & Lower Beeding"",""Haywards Heath Franklands"",Bolney,Cuckfield,""Haywards Heath Lucastes"",""Crawley Down and Turners Hill"",""High Weald"",""Ardingly and Balcombe"",""Cowfold, Shermanbury & West Grinstead"",""Haywards Heath Heath"",Wivelsfield,""Danehill & Fletching"",""Hurstpierpoint and Downs",England
347,FK14,-3.65562885628743,56.167160754491,698401,297288,"Perth and Kinross"",Fife,Clackmannanshire",,,"Strathallan,""Clackmannanshire North"",Kinross-shire,""West Fife and Coastal Villages"",""Clackmannanshire East",Scotland
382,NE27,-1.51476725,55.0328284036144,571030,431113,"North Tyneside"",Northumberland","Seaton Valley"",""North Tyneside, unparished area",,"Killingworth,Holywell,Valley,Collingwood",England
895,CA27,-3.59352125454546,54.4910051818182,511798,296877,Copeland,"St. Bees",Cumbria,"St Bees",England
209,S42,-1.42182422062663,53.1996808067885,367111,438721,"North East Derbyshire"",""Derbyshire Dales"",Chesterfield,Bolsover","Brampton,""North Wingfield"",Wingerworth,""Temple Normanton"",""Grassmoor, Hasland and Winswick"",""Ault Hucknall"",Beeley,Ashover,""Sutton cum Duckmanton"",Tupton,""Clay Cross"",""Baslow and Bubnell"",""Heath and Holmewood"",""Chesterfield, unparished area"",""Holymoorside and Walton",Derbyshire,"Wingerworth,Grassmoor,""Ault Hucknall"",Walton,Ashover,""St Leonard's"",West,Tupton,""Holmewood & Heath"",""Clay Cross North"",Chatsworth,Sutton,""Brampton & Walton"",""North Wingfield Central"",Linacre",England
215,IV6,-4.4588981328125,57.525157203125,851002,252851,Highland,,,"Dingwall and Seaforth"",""Aird and Loch Ness"",""Black Isle"",""Wester Ross, Strathpeffer and Lochalsh",Scotland
227,BH14,-1.94449578487395,50.7213648470588,91306,404014,"Bournemouth, Christchurch and Poole","Bournemouth, Christchurch and Poole, unparished area",,"Canford Cliffs"",""Penn Hill"",Oakdale,Parkstone,""Alderney & Bourne Valley"",""Newtown & Heatherlands",England
238,SY19,-3.63508643636364,52.5795183272727,299223,289302,Powys,"Trefeglwys,Llanbrynmair",,"Blaen Hafren"",Llanbrynmair",Wales
247,SE17,-0.093331842923795,51.4882293343702,178310,532475,Southwark,"Southwark, unparished area",,"North Walworth"",Faraday,Newington",England
255,CT19,1.16798262794349,51.0890871507065,136970,621948,"Folkestone and Hythe",Folkestone,Kent,"East Folkestone"",""Folkestone Central"",""Folkestone Harbour"",Cheriton,Broadmead",England
264,DA15,0.098179443564356,51.4414707009901,173474,545920,"Greenwich,Bexley","Greenwich, unparished area"",""Bexley, unparished area",,"Longlands,""Eltham South"",""Crook Log"",""Blackfen & Lamorbey"",""Falconwood & Welling"",""Blendon & Penhill"",Sidcup",England
277,NE69,-1.71879110810811,55.6047890540541,634611,417815,Northumberland,"Bamburgh,""North Sunderland",,Bamburgh,England
286,DH8,-1.85068965369947,54.8569881998475,551366,409683,"Northumberland,""County Durham","Blanchland,Healey,Muggleswick,Lanchester,Healeyfield,""County Durham, unparished area"",Edmondbyers,Hunstanworth,""Shotley Low Quarter"",Hedley,Greencroft",,"Benfieldside,Weardale,""Consett South"",Lanchester,""Consett North"",""Leadgate and Medomsley"",""Delves Lane"",""South Tynedale",England
297,PH12,-3.15482226136364,56.5758476477273,743253,329149,"Angus,""Perth and Kinross",,,"Kirriemuir and Dean"",Strathmore",Scotland
312,ST1,-2.17303079793814,53.0273262515463,347795,388492,Stoke-on-Trent,"Stoke-on-Trent, unparished area",,"Moorcroft,""Eaton Park"",""Sneyd Green"",""Joiner's Square"",""Etruria and Hanley"",""Hanley Park and Shelton"",""Birches Head and Central Forest Park"",""Ford Green and Smallthorne",England
324,KT19,-0.270740259361997,51.3525111511789,162911,520515,"Epsom and Ewell"",""Kingston upon Thames","Kingston upon Thames, unparished area"",""Epsom and Ewell, unparished area",Surrey,"Ewell Court"",Ruxley,Stamford,Auriol,Town,""West Ewell"",""Chessington South"",Court,Cuddington",England
