location,latitude,longitude
'AMRAN_GOVERNORATE,16.123526944475138,43.884942365119755
'ASIR,19.258165425650215,42.98789239375014
'EUA,-21.366755574022427,-174.92989550198638
ADAN_GOVERNATE,12.85394783234497,44.8654427636884
A'ANA,-13.889934248972558,-171.9718746099047
A'EEMBUCU,-26.811260996073724,-57.92200049262193
AARGAU,47.37143630990071,8.1531672025881
ABIA,5.488530563900788,7.536156337994078
ABRUZZO,42.260157743178965,13.856047397517147
ABU_DHABI,23.65441011394444,54.15469072738402
ABYAN_GOVERNORATE,13.75575930360657,46.15446160319191
ACEH,4.25847239399305,96.98306672548306
ACKLINS,22.614348808283378,-73.94263892376884
ACOUA,-12.724108139116103,45.06743390537374
ACQUAVIVA,43.94470913583531,12.427664331785513
ACRE,-9.196292595269783,-70.50771385745456
AD_DAKHILIYAH,22.16664833304478,57.41240093295874
AD_DALI'_GOVERNORATE,13.897293784245447,44.712337673735924
ADAMAWA,7.776627074136717,12.80789541720996
ADDIS_ABABA,8.972539156162005,38.7400406287163
ADDU,-0.600722877630066,73.08456353069725
ADRAR,24.34263647767958,-3.8267443121234725
ADYGEA,44.61570681313564,39.9722163592478
AFAR,11.981051605573253,40.816249419309045
AGADEZ,19.468248975882222,10.521631652387418
AGANA_HEIGHTS,13.464747268643348,144.7431216241643
AGAT,13.359367761924286,144.66898574377979
AGDER,58.656472928951814,7.627038580392438
AGION_OROS,40.281385575352836,24.138651028503897
AGUASCALIENTES,21.944489268633248,-102.38983024474346
AHAL_REGION,38.59766571943139,59.03700400280238
AHMADI,28.84371847991585,47.95869385577078
AHUACHAPAN,13.862790594116532,-89.89313228370766
AICHI,34.97061907345893,137.26360194246288
AIGA_I_LE_TAI,-13.861487899255915,-172.0553037326282
AILEU,-8.712689496812974,125.61253423504374
AILINGLAPLAP,7.5926857524915565,168.96389392736205
AILUK,10.411486140189533,169.97250114023154
AIMELIIK,7.440844789776786,134.51108563126115
AIN_DEFLA,36.18308650903956,2.081933731247401
AIN_TEMOUCHENT,35.34052338935554,-1.0819205098429814
AINARO,-9.056000847173252,125.54089384681701
AIRAI,7.411562248605897,134.55103716725853
AIWO,-0.534718419901337,166.91472724952277
AJLUN,32.235812511308296,35.75956698873106
AJMAN,25.225270726439412,55.69184721374343
AKITA,39.75572691297486,140.3691917535601
AKMOLA_REGION,51.81253331770828,69.88316710136624
AKTOBE_REGION,48.612886887383446,58.585869109159745
AKWA_LBOM,4.843251597975589,7.886360142544409
AL_ANBAR,32.94932426522181,41.62349843076434
AL_ASIMAH,29.340046100114378,47.90942952553043
AL_BAHAH,20.15728526166515,41.42014904397498
AL_BATINAH,23.881690310956838,57.058950728601374
AL_BAYDA'_GOVERNORATE,14.357460086383924,45.269748754356286
AL_DAAYEN,25.499513994277624,51.486430477649094
AL_HASAKAH,36.50879645351666,40.88773234153427
AL_HUDAYDAH_GOVERNORATE,14.778832989451697,43.23282017472749
AL_JAWF,29.991890422545662,39.5936453095053
AL_JAWF_GOVERNORATE,16.600410717692107,45.55786408524256
AL_KHOR_AND_AL_THAKHIRA,25.758978794070277,51.293619649448594
AL_MAHRAH_GOVERNORATE,16.736691185055783,51.59331529812512
AL_MAHWIT_GOVERNORATE,15.367585773449719,43.550203890549376
AL_QADISIYAH,31.946314086872828,45.131039499513975
AL_QASSIM,26.10890292839484,43.243642052875444
AL_RAYYAN,25.060561952344024,51.13677591650355
AL_SHAMAL,25.98512638955027,51.223647299272436
AL_SHARQIA,30.626294245200494,31.78296592426242
AL_SHEEHANIYA,25.438112120994848,51.053678747685865
AL_WAHAT,28.84918720112276,21.342167869065616
AL_WAKRA,24.90459494838597,51.295236162590996
AL_WUSTA,19.99172017429875,56.526292058411556
ALABAMA,32.79150614732487,-86.807350057863
ALAGOAS,-9.514725850396704,-36.658629745252426
ALAND_ISLANDS,60.21387180784904,19.90836176334855
ALAOTRA_MANGORO,-17.949002990660066,48.34621910786875
ALASKA,64.37931705145415,-152.6416451312162
ALBA,46.12419060691395,23.496034168132564
ALBERTA,55.16812656777766,-114.50575279242258
ALBORZ,35.92900026258454,50.87639051117847
ALEPPO,36.247369290892145,37.653907160469196
ALEXANDRIA,30.821296478010293,29.821123531778465
ALGIERS,36.70231933520803,3.07251427641623
ALI_SABIEH,11.19081633768157,42.888932138305435
ALIBORI,11.308329624200125,2.9043517472021327
ALIF_ALIF,4.437486091644799,72.95500197314256
ALMATY,43.24884370774409,76.93860559298125
ALMATY_REGION,44.97717185883196,77.9264870493168
ALTA_VERAPAZ,15.609612812894332,-90.08990632732352
ALTAI_KRAI,52.61625037309478,82.58106594976348
ALTAI_REPUBLIC,50.76751740239056,87.07576551165937
ALTO_PARAGUAY,-20.581727225653538,-59.40101953848876
ALTO_PARANA,-25.34835176541982,-54.92404374309997
ALYTUS,54.247910953321174,24.034103857977943
AMAMBAY,-22.934838826872763,-56.10744486475423
AMAPA,1.4324848153963738,-51.99275276439041
AMAZONAS,-4.0113349874549025,-65.40909554738275
AMAZONAS_STATE,3.3444040895805114,-65.94563152716701
AMERICAN_SAMOA,-14.319855064078983,-170.78507210293796
AMHARA,11.549055443029873,38.090904147921606
AMMAN,31.60803960333879,36.34751286424805
AMNAT_CHAROEN_PROVINCE,15.871781939283206,104.82117840908796
AMORON'I_MANIA,-20.508592460555736,46.70990572367433
AMUR,53.408076943831844,127.8101036364535
AN_GIANG,10.546676514378722,105.14125832284381
ANABAR,-0.5081635166968593,166.95001286580546
ANALAMANGA,-18.42059689443769,47.45804190115587
ANALANJIROFO,-16.295651266067093,49.391498461359525
ANAMBRA,6.1970724305203975,6.922637875997693
ANCASH,-9.427349988129086,-77.64873069603614
ANDALUCIA,37.438196088113365,-4.548265795197067
ANDAMAN_AND_NICOBAR_ISLANDS,11.807854516518459,92.66693973548684
ANDHRA_PRADESH,15.728151925121374,79.96777363148266
ANDIJAN_REGION,40.76303967355674,72.31106175448392
ANDORRA_LA_VELLA,42.499311694218974,1.509134811218998
ANDROY,-24.805024323223332,45.4338653983847
ANEGADA,18.725231170654354,-64.33504740397132
ANETAN,-0.5044879007760884,166.94376166736953
ANG_THONG_PROVINCE,14.660053644081383,100.3394693649012
ANGAUR,6.908335080882346,134.13601438191253
ANHUI,31.81295497415206,117.22281490946786
ANJOUAN,-12.204050471047246,44.40306397722879
ANNABA,36.82823578772058,7.512997554986891
ANNOBON,-1.433182714837234,5.632393072163914
ANOSY,-24.006600012020638,46.27524932642829
ANSE_AUX_P,-4.688764306621765,55.51737438332581
ANSE_BOILE,-4.709537241679291,55.49166618549723
ANSE_ETOIL,-4.594692685351788,55.453410422570116
ANSE_LA_RAYE,13.930786462621118,-61.01759998291411
ANSE_ROYAL,-4.740742947472201,55.513260918138236
ANSEBA_REGION,16.46934076962549,37.73665699415612
ANTIOQUIA,6.975292243474278,-75.60076512036002
ANTOFAGASTA,-23.55331109625812,-69.12511601417197
ANZOATEGUI,8.999455589042423,-64.46663205366062
AOMORI,40.67349092624665,140.78654628747947
APPENZELL_AUSSERRHODEN,47.37300306934025,9.391795680718204
APPENZELL_INNERRHODEN,47.32799395516553,9.40773418620392
APURE,7.131568426625038,-68.87772656717996
APURIMAC,-14.092257920459787,-72.99310105190432
AQABA,29.790705371306565,35.29259322465793
AR_RAQQAH,35.99818434839086,38.935969513677605
ARAD,46.29448721324254,21.759627144314493
ARAGATSOTN,40.444346755867144,44.08489626711297
ARAGON,41.48196729980111,-0.6888925476046315
ARAGUA,10.036436054326586,-67.1539976335494
ARARAT,40.01061374302325,44.7863665102563
ARAUCA,6.565716945503414,-70.99754719700809
ARCHIPIELAGO_DE_SAN_ANDRES,_Providencia_Y_Santa_Catalina,12.538957934025479
ARDABIL,38.47103855489789,48.053763819297565
AREQUIPA,-15.826263887978502,-72.46907970365868
ARGES,45.00912256679993,24.88952355637323
ARIANA,36.955682799015435,10.14350119544817
ARICA_Y_PARINACOTA,-18.502081391599635,-69.62783960342436
ARIZONA,34.29115158582636,-111.67250118196061
ARKANSAS,34.900468679950215,-92.45923017236628
ARKHANGAI,47.90403445497089,101.00134586959706
ARKHANGELSK,66.69780327827736,47.63235667109224
ARMAVIR,40.15971445035845,44.15150740091078
ARNO,6.994798847527633,171.62380123787892
ARTA,11.450184915460154,42.81608566925756
ARTEMISA,22.786929293242782,-82.85395508721419
ARTIBONITE_DEPARTMENT,19.34441003156025,-72.57521764637028
ARTIGAS,-30.601273396472678,-56.98123547521562
ARUBA,12.524120648702041,-69.9713414510091
ARUNACHAL_PRADESH,28.04380200356718,94.65199596529983
ARUSHA,-3.013518595351871,35.93670226635841
AS_SUWAYDA,32.74884043553089,36.8593518455383
ASAN,13.455272152865582,144.7247349817182
ASH_SHARQIYAH,22.03060388825073,58.691705012320774
ASHANTI,6.822471153544183,-1.4376689049452465
ASHGABAT,37.92967483201625,58.36682302700401
ASSABA,16.537848726388667,-11.518195985978805
ASSAM,26.39367526573375,92.88853780527819
ASTANA,51.15729054660706,71.38966220146212
ASTRAKHAN,47.13318332186322,47.246805195860176
ASTURIAS,43.28460559005319,-5.966128423560155
ASUNCION,-25.31938198291687,-57.626699771239615
ASWAN,23.351740784544813,32.609639664254715
ASYUT,27.40163365379364,31.77557637505806
ATACAMA,-27.31790700176034,-69.87064778796174
ATAKORA,10.710588895313315,1.5833843318988228
ATLANTICO,10.701950187548086,-74.98349496948363
ATLANTIDA,15.683637163539007,-87.09741033135067
ATLANTIQUE,6.611122777910447,2.2268975809739184
ATSIMO_ANDREFANA,-23.076591635785388,44.44585237092984
ATSIMO_ATSINANANA,-23.15990719595034,47.28658219086249
ATSINANANA,-19.10875024756844,48.67626287254419
ATTAPEU,14.78036318216263,106.87913068921956
ATTICA,38.14833239801939,23.321610703540372
ATUA,-13.949525467080509,-171.64489530099056
ATYRAU_REGION,47.53262741214095,52.184721477984816
AU_CAP,-4.708082332122165,55.514017222657365
AUCKLAND,-36.76084577739116,174.63734911964687
AUR,8.31146473984424,171.16400324975493
AUSTRALIAN_CAPITAL_TERRITORY,-35.53770107151085,148.98094982395122
AUTONOMOUS_REGION_IN_MUSLIM_MINDANAO,7.493102897590874,124.34203371266338
AUTONOMOUS_REPUBLIC_OF_ABKHAZIA,43.10633265435419,41.263652951395066
AUTONOMOUS_REPUBLIC_OF_ADJARA,41.69324438423064,42.060525551019886
AUTONOMOUS_REPUBLIC_OF_CRIMEA,45.28316164171273,34.35160289425139
AUVERGNE_RHONE_ALPES,45.49493785814415,4.526885152642295
AVANNAATA,75.63402499818002,-54.77663438467861
AVEIRO,40.73062000291253,-8.50332897034362
AWDAL,10.586794734238271,43.37932059611227
AYACUCHO,-14.100884294464036,-74.09569765618181
AYEYARWADY,16.987727894775453,95.13075748830803
AZ_ZAHIRAH,22.856120286880458,56.12482743393996
AZAD_KASHMIR,34.11779689154097,74.10198811136735
AZUA,18.553660000324104,-70.83295564638415
AZUAY,-3.0220768163944336,-79.21888003984661
BA_RIA___VUNG_TAU,10.62337755101765,107.36257903503237
BAA,4.875862801030524,72.99949888676558
BABIL,32.58894313056323,44.51793319422834
BABONNEAU,13.898635010809317,-61.039161759702125
BAC_GIANG,21.353884676157094,106.35506810660887
BAC_KAN,22.243688691939173,105.82365644061379
BAC_LIEU,9.327045783567437,105.50756170879806
BAC_NINH,21.105451644593845,106.09011549000076
BACAU,46.4209751866553,26.75873772084153
BACS_KISKUN,46.54098222655111,19.370929331254473
BADAKHSHAN,37.025906058310355,71.42776351791721
BADEN_WURTTEMBERG,48.51167979752441,9.031305302861554
BADGHIS,35.17689046246217,63.68863873286334
BAFATA,12.201354721727995,-14.681136635278746
BAGHDAD,33.313102619391685,44.44365431098301
BAGHLAN,35.81694280062833,68.9425007856939
BAGO_EAST,18.20408073288267,96.4683290758045
BAGO_WEST,18.43180861100403,95.50693268379506
BAHIA,-12.479929371934963,-41.73891204897255
BAHR_EL_GAZEL,14.529204155577151,16.89290852351225
BAIE_LAZAR,-4.7521865005056405,55.49639386816054
BAIE_SAINT,-4.322878268590527,55.739655754545005
BAITSI,-0.509551803145508,166.92953633876303
BAJA_CALIFORNIA,30.609125539955357,-115.11551930442624
BAJA_CALIFORNIA_SUR,25.96591387995983,-112.10678353562707
BAJA_VERAPAZ,15.072667656782532,-90.33802964924493
BAKOOL,4.18720396631429,43.95290362517728
BALEAR_ISLANDS,39.60800544277284,2.955659142928969
BALI,-8.332908431424077,115.1046980481359
BALKAN_REGION,39.75393375131463,55.09576851373846
BALKH,36.679482413211964,67.02717241388648
BALOCHISTAN,28.33329950878355,65.90067804461766
BALQA,31.97883001523889,35.675997461899044
BALZERS,47.14336891608414,9.598752417500785
BAMAKO,12.59749315692172,-7.9725484997951295
BAMINGUI_BANGORAN,8.461928551508514,20.600980117392602
BAMYAN,34.84810064903125,67.26434450913554
BANADIR,2.108359658174752,45.420567039727885
BANDRABOUA,-12.724466942093448,45.12055294134061
BANDRELE,-12.918654316406545,45.17467732644428
BANGKA_BELITUNG_ISLANDS,-2.433837844438482,106.42216805064385
BANGKOK,13.756847594604794,100.60614901480794
BANGUI,4.367828514572629,18.571161406370038
BANJUL,13.456872439516147,-16.60634242850415
BANSKA_BYSTRICA,48.496209691274196,19.52804037929017
BANTEN,-6.451825492336944,106.12966684959049
BANTEY_MEANCHEY,13.722792804112053,103.00405761192832
BAORUCO,18.51978523950694,-71.2727772578236
BARAHONA,18.174630311443906,-71.18827263269635
BARANYA,46.014919547883906,18.249828186755952
BARBUDA,17.647295408888013,-61.80897055993929
BARI,10.220064568604034,50.038452266179476
BARINA_WAINI,7.576416449832914,-59.70724230525415
BARINAS,8.15672885380498,-69.9084188672058
BARINGO,0.6978760101213034,35.96329730419511
BARISAL,22.468383569796142,90.24559764527295
BARRIGADA,13.484453448840187,144.80249055139834
BAS_SASSANDRA,5.350273141784047,-6.681775240843289
BASEL_LANDSCHAFT,47.46823865579651,7.632171914135147
BASEL_STADT,47.57546382244288,7.593866456444566
BASHKORTOSTAN,54.30690374203637,56.52636984878188
BASILICATA,40.48821070551361,16.079177830213172
BASQUE_COUNTRY,43.02218781930145,-2.584858326942247
BASRA,30.39052073064241,47.41857769906802
BASSE,13.389200454024884,-14.317661145320551
BASSE_KOTTO,4.926654268088467,21.353264748307804
BASSE_TERRE,16.181105227645016,-61.682407326819536
BATHA,14.023998296664287,18.809888279758383
BATKEN_REGION,39.852916923702516,70.89480923929835
BATNA,35.41950538553291,5.944774358864906
BATTAMBANG,12.95517597903146,103.07102927166963
BAUCAU,-8.567825604385963,126.47999604340436
BAUCHI,10.772867544229015,9.970648483467091
BAVARIA,48.961546218779404,11.375874055466408
BAY,2.64636857595724,43.55760235991103
BAY_ISLANDS,16.360160436995564,-86.45901331944786
BAY_OF_PLENTY,-38.151342869964985,176.88860665992652
BAYAN_OLGII,48.5567217611469,89.84529409456988
BAYANKHONGOR,45.26041223618192,99.52387678934386
BAYELSA,4.845595182437058,6.1001939179899765
BEAU_VALLO,-4.60890881447116,55.43486140604132
BECHAR,30.08263974932205,-2.4592233999931397
BEHEIRA,30.61777996147266,30.32712256038402
BEIJING,40.17290536082474,116.45009255940026
BEIRUT_GOVERNORATE,33.8916970518844,35.50070604081181
BEJA,37.55460048628444,-3.1792895505537198
BEJAIA,36.60407045165264,4.801031773718806
BEKES,46.79363427210822,21.01876081531624
BEL_AIR,-4.635933229185187,55.449580001766414
BEL_OMBRE,-4.623034519291122,55.4132398960524
BELAIT,4.423241398696049,114.60150313716899
BELGOROD,50.677963614352485,37.426888245122754
BELGRADE,44.64903554595179,20.42961721856709
BELIZE_DISTRICT,17.484538593002398,-88.39977627676238
BEN_AROUS,36.65376330787379,10.253879806468138
BEN_TRE,10.262579635228633,106.21637524252988
BENDER,46.82210743485537,29.463949981062775
BENESHANGUL_GUMU,10.515766818019184,35.45103740737785
BENGHAZI,31.695445893884234,20.606002367713145
BENGKULU,-3.5201477548253806,102.31517187732935
BENGO,-8.94640145348031,13.873932528949315
BENGUELA,-12.916949737053221,13.997517837323425
BENI,-13.793719441259112,-65.27373455436931
BENI_MELLAL_KHENIFRA,32.45798247681538,-6.3018656308888445
BENI_SUEF,28.892441449139906,31.113398362826135
BENUE,7.294949118755038,8.716934154285408
BEQAA_GOVERNORATE,33.942502668006426,36.119777465562066
BERAT_COUNTY,40.63423633920328,20.12652044915121
BEREA_DISTRICT,-29.214408646676386,27.910090155806767
BERLIN,52.511258530496114,13.443732797147002
BERN,46.85600011968429,7.601557267085809
BERRY_ISLANDS,25.730777275842776,-77.83459567365533
BETSIBOKA,-17.18345427011544,47.080078782588025
BIE,-12.343277497320575,17.304231135612543
BIHAR,25.64773734074602,85.62573740919642
BIHOR,46.937435392018195,22.209950164985784
BIMINI,25.7464356497377,-79.25917397130542
BINH_DINH,14.102109848511235,108.94143370931174
BINH_DUONG,11.213543345614776,106.67084852692196
BINH_PHUOC,11.766777108123666,106.91138246108973
BINH_THUAN,11.105172192032445,108.04381223586235
BIOBIO,-37.49418864337096,-72.41839811847437
BIOKO_NORTE,3.639840153198692,8.780292977729651
BIOKO_SUR,3.477837273954168,8.631349038664615
BIOMBO,11.935297225492503,-15.688226476546165
BISKRA,34.52362553289712,5.290206662701638
BISSAU,11.874263460930171,-15.600162365259294
BISTRITA_NASAUD,47.22137404899782,24.540586001153393
BIZERTE,37.08967226306734,9.666884213658173
BJELOVAR_BILOGORA,45.69991738063731,16.98007665843451
BLACK_POINT,24.089454557598827,-76.39599250510963
BLACK_RIVER,-20.35695565187873,57.436918139039264
BLAGOEVGRAD,41.74859960003641,23.44873888198101
BLEKINGE,56.30880861607349,15.091524134436147
BLIDA,36.51310577004693,2.9069629078490036
BLUE_NILE_STATE,11.249460703503182,34.146273333460655
BOA_VISTA,16.070460208673804,-22.82380494787037
BOACO,12.441340429560693,-85.54685125328852
BOBONARO,-8.97546576270534,125.19238005336841
BODDEN_TOWN,19.275836308797295,-81.28254699707026
BOE,-0.5403391988012096,166.91727389546713
BOENY,-16.28116111719442,46.22034700006321
BOGOTA_CAPITAL_DISTRICT,4.178441839299722,-74.20063935824729
BOKE,11.39695466585893,-13.70731381555378
BOKEO,20.334345738730335,100.66073745077684
BOLAMA,11.104888505325187,-16.17172501434511
BOLIKHAMSAI,18.49981773470562,104.20147609806419
BOLIVAR,6.378039548220594,-64.71098203636929
BOMET,-0.63095427675512,35.28393137067919
BOMI,6.778186576295246,-10.826680771052517
BONAIRE,12.18365732828778,-68.27606455485024
BONG,6.94398377587669,-9.660144825511132
BONGOLAVA,-18.547369725440724,46.170771581458176
BOQUERON,-21.900825796356614,-61.06637452297365
BOR_DISTRICT,44.25452269587675,22.204463705090937
BORDJ_BOU_ARRERIDJ,36.096660793478286,4.594020204059227
BORGO_MAGGIORE,43.941674461269685,12.454655880821374
BORGOU,9.798092665764885,2.7700965845643113
BORKOU,17.210985596864354,18.202671500179054
BORNO,11.904611254767838,13.185309773844773
BORSOD_ABAUJ_ZEMPLEN,48.2081141654769,20.977487809908876
BOTOSANI,47.85403887953616,26.76701210695498
BOUCLE_DU_MOUHOUN,12.573558628693172,-3.469437445373976
BOUENI,-12.946283658345502,45.109237670898494
BOUENZA,-4.103067445260161,13.530669326567754
BOUGAINVILLE,-6.2098616458784575,155.31242436919473
BOUIRA,36.296390715284836,3.829225382607329
BOUMERDES,36.71075141364828,3.594465263291852
BOURGOGNE_FRANCHE_COMTE,47.218377298184265,4.8009355682273585
BOYACA,5.74377158647031,-73.10179590260599
BRAGA,41.582956495002136,-8.336072579573782
BRAGANCA,41.49415573410145,-6.897857055724746
BRAILA,45.0886128305766,27.683309582040412
BRAKNA,17.255099644650976,-13.42228463814923
BRANDENBURG,52.482489583474596,13.407613290310394
BRANICEVO_DISTRICT,44.483360624313576,21.52227087089949
BRASOV,45.7437677255736,25.321895713120178
BRATISLAVA,48.197441151265714,17.098143263186373
BRAVA,14.859967531173584,-24.70102881103942
BRAZZAVILLE,-3.926169703463325,15.434806929325148
BRCKO_DISTRICT_OF_BOSNIA_AND_HERZEGOWINA,44.85954539302142,18.787513580218885
BREMEN,53.12963647754877,8.772251328872802
BREST_REGION,52.3860898449488,25.443315659906933
BRETAGNE,48.1955161728529,-2.801457288635759
BRICENI_DISTRICT,48.2574347390435,26.998545197943887
BRIKAMA,13.243139542034942,-16.37303776497507
BRITISH_COLUMBIA,54.77844553494949,-124.67498164224939
BROD_POSAVINA,45.20018537825974,17.83822378757514
BROKOPONDO,4.704999161684201,-55.135100139628044
BRONG_AHAFO,7.719855719567212,-1.6708821021065823
BRUNEI_MUARA,4.831121800910416,114.8455198034021
BRUSSELS,50.842593740278964,4.37592842799716
BRYANSK,52.916365343145465,33.4401943246025
BUADA,-0.538306844991027,166.9185907130632
BUBANZA,-3.1296322813190147,29.403264485403724
BUCHAREST,44.42709410283995,26.076258541602808
BUDAPEST,47.4735406559165,19.141178502524482
BUENG_KAN_PROVINCE,18.1003245991691,103.75615782003338
BUENOS_AIRES,-36.65985101306539,-60.56045980390089
BUJUMBURA_MAIRIE,-3.367378941178006,29.34673251283319
BUJUMBURA_RURAL,-3.4556707404271143,29.430002329817377
BUKHARA_REGION,40.1788698447093,63.656360671624746
BULAWAYO,-20.12521382548739,28.536713728502754
BULGAN,48.92019353687181,103.43120191416388
BUMTHANG_DISTRICT,27.718764217181327,90.6957276891289
BUNGOMA,0.8254092858712818,34.62373987613441
BURGAS,42.506672411449465,27.305777006896847
BURGENLAND,47.49018678521686,16.519549372924356
BURI_RAM_PROVINCE,14.813062354554042,102.94812454195855
BURURI,-3.8600734995145323,29.61144892288052
BURYATIA,53.51237486625717,109.46363862457476
BUSAN,35.27338527571226,129.11491580207073
BUSHEHR,28.783865617943157,51.458799085212874
BUSIA,0.37469065976472754,34.2106929860155
BUTHA_BUTHE_DISTRICT,-28.795759157593483,28.61098322718276
BUTNAN,30.085900597346527,23.981670391865194
BUZAU,45.28088164416991,26.773311087048782
CA_MAU,9.158207433754594,105.05664392739229
CAA'AR,-2.5199573487309284,-79.00033602217833
CAAGUAZU,-25.217968260787348,-55.92880317555025
CAAZAPA,-26.213916429514803,-56.03569015482088
CABANAS,13.874577887949531,-88.69822149598882
CABINDA,-4.9428533017813985,12.520463872892606
CABO_DELGADO,-12.469800013881185,39.36327048185514
CACHEU,12.227401691145944,-16.042648762456572
CAIRO,30.044122398066623,31.673497245757684
CAJAMARCA,-6.4551126508395456,-78.74332248671264
CALABRIA,39.14380561789805,16.37559742581233
CALARASI,44.283235526044884,26.937498093446564
CALDAS,5.3022592306108205,-75.30128632135825
CALIFORNIA,37.26264195903,-119.62764209235748
CALLAO,-11.936539142273825,-77.12954802708822
CAMAGUEY,21.38968928849445,-77.90302148728965
CAMPANIA,40.902727390456036,14.895627717591527
CAMPECHE,18.82754445278045,-90.3292772388323
CAN_THO,10.111321912932233,105.52673320758701
CANARIES,13.984102497748626,-60.98080546396393
CANARY_ISLANDS,28.3245798601452,-15.607216818484927
CANELONES,-34.574269061244706,-55.91301946500021
CANILLO,42.575647480957926,1.6345018785626708
CANINDEYU,-24.20722665103823,-55.2514727150789
CANKUZO,-3.125883149204238,30.584176456816948
CANTABRIA,43.1512450777419,-4.042888282007512
CANTERBURY,-43.60160249685072,171.53510998232312
CANTON_CAPELLEN,49.647626523037914,5.965218787330195
CANTON_CLERVAUX,50.02114603480077,6.0385966147556065
CANTON_DIEKIRCH,49.86292744498649,6.143655404409376
CANTON_ECHTERNACH,49.7812608921387,6.349853880163735
CANTON_ESCH_SUR_ALZETTE,49.55197087204539,6.051191316422319
CANTON_GREVENMACHER,49.68478115967794,6.340283249953216
CANTON_LUXEMBOURG,49.614306261182456,6.161779894632461
CANTON_MERSCH,49.75122367999717,6.124727112735933
CANTON_REDANGE,49.79632186778952,5.92119306882673
CANTON_REMICH,49.57300052656562,6.298581516849316
CANTON_VIANDEN,49.936716961375986,6.163095879646294
CANTON_WILTZ,49.91721348118901,5.908823353362308
CAO_BANG,22.73043249040137,106.10453040691395
CAPITAL_GOVERNORATE,26.184491540445112,50.55684417461701
CAPITAL_REGION,64.1670612847082,-21.626960595286192
CAPITAL_TERRITORY,-9.433469543893363,159.97488213725887
CAQUETA,0.7783321385127597,-73.91090017764006
CARABOBO,10.18115877634733,-67.99399697780288
CARAS_SEVERIN,45.158560885251134,22.0135639137013
CARAZO,11.742499601438148,-86.24098768394018
CARCHI,0.7535517516983687,-78.0374592478083
CARINTHIA,46.75540371359032,13.967667949737846
CARLOW,52.721033168397035,-6.847146789701678
CASABLANCA_SETTAT,33.026486885633346,-7.771115971357628
CASANARE,5.442927578560812,-71.55129957459394
CASCADE,-4.671329829278922,55.49092049756078
CASCADES,10.334983168660367,-4.55814873569592
CASTELO_BRANCO,39.921525189616624,-7.542113413344139
CASTILLA_LA_MANCHA,39.54448725623114,-2.992067447187677
CASTILLA_Y_LEON,41.73090604971353,-4.7859772116804615
CASTRIES,13.798912135310966,-61.03423764602366
CAT_ISLAND,24.18144813909227,-75.40620891833031
CATALUNYA,41.790407634909954,1.4872638304645622
CATAMARCA,-27.327575081201612,-66.96018026272282
CAUCA,2.373495963451916,-76.84978859780976
CAVAN,54.006116434382015,-7.385915969966896
CAYENNE,4.00562413108888,-52.68528432801183
CAYMAN_BRAC,19.729120254516623,-79.7781041463216
CAYO,16.987318588609167,-88.91554793658142
CEARA,-5.096816092498032,-39.60055756564228
CENTER,32.06749611348606,34.883570619707655
CENTRAL,-12.188913123200447,52.03790520434151
CENTRAL_ABACO,26.482805490250872,-77.19238761408508
CENTRAL_ANDROS,24.46882308170153,-77.97667418932554
CENTRAL_BANAT_DISTRICT,45.44730563492823,20.527703615912028
CENTRAL_DARFUR,12.312979581014588,23.348583433881224
CENTRAL_DISTRICT,-21.546676322893624,26.275301028967945
CENTRAL_ELEUTHERA,25.17903385369998,-76.32233232179398
CENTRAL_EQUATORIA,4.716620236861776,31.202698697282187
CENTRAL_FINLAND,62.45850220950822,25.358288925274394
CENTRAL_JAVA,-7.297504716793661,110.24198399554882
CENTRAL_KALIMANTAN,-1.5979260040812973,113.43930378993453
CENTRAL_KASAI,-6.223481020636918,22.486739970711266
CENTRAL_PROVINCE,7.31675166925728,80.68062939685018
CENTRAL_REGION,-4.569622418865567,32.954710228808594
CENTRAL_SULAWESI,-0.9155097731999609,120.94439942001004
CENTRALE_REGION,8.594196013838271,1.0876033043577271
CENTRE,4.913470491686634,11.375825558637995
CENTRE_DEPARTMENT,19.013619469494653,-71.98761811097643
CENTRE_EST,11.644154178605026,-0.17094480775649984
CENTRE_NORD,13.281647016132254,-0.9054188683267403
CENTRE_OUEST,11.777705687519354,-2.1533119491051718
CENTRE_SUD,11.58899893472923,-1.1012661778935986
CENTRE_VAL_DE_LOIRE,47.50077582395523,1.68212468678447
CENTRO_SUR_PROVINCE,1.4725110833984132,10.462745083370095
CERRO_LARGO,-32.4003020614298,-54.343420456196384
CESAR,9.494566770621104,-73.52273173671651
CHACHOENGSAO_PROVINCE,13.573362705797718,101.40310286522991
CHACO,-26.384728893266036,-60.76212552136968
CHAGANG,40.86165524391791,126.54490833932944
CHAGUANAS,10.54923467675354,-61.42400905901195
CHAHARMAHAL_AND_BAKHTIARI,32.050345744906714,50.645100822735884
CHAI_NAT_PROVINCE,15.129660028645603,100.04847330316171
CHAIYAPHUM_PROVINCE,16.00408720809758,101.83787749183419
CHALAN_PAGO_ORDOT,13.443046933470407,144.7678547280115
CHALATENANGO,14.147870249322006,-89.10514319700223
CHAMPASAK,14.757136162876362,105.92900855234424
CHANDIGARH,30.732547251288757,76.77871014260494
CHANGHUA_COUNTY,23.948952618200934,120.53474302155968
CHANTHABURI_PROVINCE,12.904125534607394,102.12576522323782
CHARI_BAGUIRMI,11.24937368412089,16.302649640523807
CHARLOTTE,13.24780731111756,-61.17413751088025
CHATHAM_ISLANDS_TERRITORY,-43.843456436072756,-176.54118059340445
CHECHNYA,43.268226266639346,45.70305971247176
CHELYABINSK,54.47492910085502,60.35606990879874
CHERKASY_OBLAST,49.25368834711368,31.42666267227507
CHERNIHIV_OBLAST,51.35404113057967,31.98334892681181
CHERNIVTSI_OBLAST,48.27383718758172,26.056670879431465
CHHATTISGARH,21.28504807933554,82.064478548601
CHIANG_MAI_PROVINCE,18.872759886809252,98.74776466364939
CHIANG_RAI_PROVINCE,19.82880314471775,99.85026165129067
CHIAPAS,16.46801284087532,-92.47987928557801
CHIAYI,23.48790209362111,120.44710679840176
CHIAYI_COUNTY,23.424320338833702,120.52844487318798
CHIBA,35.540775413968305,140.1775460468062
CHICONI,-12.819141591296722,45.113992636223934
CHIESANUOVA,43.916657049465826,12.42762348042857
CHIHUAHUA,28.79412182677907,-106.45827787941025
CHIMALTENANGO,14.662922043199757,-90.92523435681656
CHIMBORAZO,-1.9625497630344046,-78.72330798698502
CHIN,22.183464977030773,93.52489448167138
CHINANDEGA,12.854131113277532,-87.14257008958327
CHIQUIMULA,14.661127657626846,-89.4225276366347
CHIRONGUI,-12.913701867824633,45.14135629258493
CHITTAGONG,22.68546917636708,91.81001238940344
CHLEF,36.19759721907704,1.2936618853088901
CHOBE_DISTRICT,-18.531811253629087,24.835048387774368
CHOCO,5.911227529354382,-76.92823008493336
CHOISEUL,13.914042071873213,-60.91333345179809
CHOISEUL_PROVINCE,-6.972480082500954,156.87495572842857
CHOLUTECA,13.433857390169967,-87.05250155215997
CHON_BURI_PROVINCE,13.175378005530732,101.21904210740607
CHONGQING,30.02388939297901,107.86550579158772
CHONTALES,11.993364740599446,-85.17216912437752
CHRIST_CHURCH,13.094281309712635,-59.53234962958666
CHRIST_CHURCH_NICHOLA_TOWN,17.361598113602962,-62.76676862448357
CHUBUT,-43.77254002268254,-68.48804388141728
CHUKHA_DISTRICT,27.012808719773698,89.51499639415667
CHUKOTKA_AUTONOMOUS_OKRUG,66.45882868540467,114.22733050707565
CHUMPHON_PROVINCE,10.386035930469367,99.0869307828303
CHUNGCHEONGBUK_DO,36.74390335455252,127.78419095841086
CHUNGCHEONGNAM_DO,36.505379114681546,126.86038824651393
CHUQUISACA,-20.0196596574642,-64.2833210455592
CHUUK,7.446145530087094,151.8534637020106
CHUVASHIA,55.509714960735145,47.05855453590891
CHUY_REGION,42.61236630623402,74.6472298895384
CIBITOKE,-2.856512091754036,29.29017727264169
CIEGO_DE_AVILA,21.950636920162015,-78.64480817647699
CIENFUEGOS,22.127082969283023,-80.3511262225053
CITTA_DI_SAN_MARINO,43.92769306912805,12.433241370870306
CITY_OF_FREEPORT,26.53416731503456,-78.69860457809145
CIUDAD_AUTONOMA_DE_BUENOS_AIRES,-34.607938290994866,-58.44900372865226
CIUDAD_AUTONOMA_DE_CEUTA,35.88916910685634,-5.347350142313144
CLARE,52.860063764071754,-8.90202185701153
CLARENDON,18.032143178931452,-77.30808634754143
CLUJ,46.82550674011799,23.566783436691047
COAHUILA,27.33181197365051,-102.03045798640333
COCHABAMBA,-17.248951788848572,-65.66625106150883
COIMBRA,40.2198342242591,-8.34409684282219
COJEDES,9.337619252211404,-68.34956660275516
COLIMA,19.11215443860876,-103.94717569346005
COLLINES,8.140822105973763,2.198218128556088
COLON,15.638569647085292,-85.58079351667595
COLON_PROVINCE,9.180472929940601,-79.99174273401991
COLONIA,-34.15148264668559,-57.65786925639755
COLORADO,38.99877005864874,-105.54782825469705
COMARCA_EMBERA_WOUNAAN,8.48661715640301,-77.60243262067614
COMARCA_GUNA_YALA,9.1668897638114,-78.3792277735533
COMARCA_NGABE_BUGLE,8.639920324602917,-81.80184882667326
COMAYAGUA,14.634955374929834,-87.64373163320256
COMMEWIJNE,5.781018569574968,-54.85094570733827
COMMONWEALTH_OF_THE_NORTHERN_MARIANA_ISLANDS,15.193084231434225,145.753862681348
COMOE,6.1030679658503,-3.3312722530129704
COMUNITAT_VALENCIANA,39.343692557655444,-0.5497185740710924
CONAKRY,9.602009134559164,-13.578127194755991
CONCEPCION,-22.812617638189064,-57.16275327692351
CONNECTICUT,41.62595339877936,-72.75709735309286
CONSTANTA,44.298674790059806,28.265998986606277
CONSTANTINE,36.32878622766694,6.732462216161544
COPAN,14.956854905025212,-88.87338824895328
COPPERBELT,-13.133928802038755,27.90307889105934
COQUIMBO,-30.5475388825871,-70.85615047587845
CORDILLERA,-25.221373464078034,-56.97150933259646
CORDILLERA_ADMINISTRATIVE_REGION,17.292577569278926,121.06495518917936
CORDOBA,-27.891498942109326,-65.0585856257782
CORK,51.95928400712374,-8.837087194444964
CORONIE,5.632088619444249,-56.2889134088438
COROZAL,18.21549306968013,-88.36842302256956
CORRIENTES,-28.775679420038497,-57.75596056259119
CORSICA,42.0468941661308,9.079971645215544
CORTES,15.361192639082736,-88.014721748195
COTOPAXI,-0.8314924460705598,-78.85518432365689
COUVA_TABAQUITE_TALPARO,10.438122379213233,-61.33967086112818
COVA_LIMA,-9.285053985197816,125.21927211135869
COVASNA,45.938792627129516,26.03140080857116
CRETE,35.211677312392794,24.88780979013856
CROOKED_ISLAND_AND_LONG_CAY,22.736151899296555,-74.16428379759446
CROSS_RIVER,5.8993184213589664,8.559896623325367
CSONGRAD,46.41817116328602,20.25001288124485
CUANDO_CUBANGO,-16.141787405089108,19.553806479174263
CUANZA_NORTE,-8.89045334474519,14.91651921725996
CUANZA_SUL,-10.794666215896711,15.019478703302541
CUNDINAMARCA,4.751716338879483,-74.08767497802724
CUNENE,-16.50385535464238,15.627922966554976
CURACAO,12.147268613179563,-68.93578847249348
CUSCATLAN,13.836133223650727,-88.99879130258812
CUSCO,-13.17280788705392,-72.18249189601009
CUVETTE,-0.6201622203415109,15.948518492589322
CUVETTE_OUEST,0.10076016540903954,14.622503177758993
CUYUNI_MAZARUNI,6.168486942054994,-59.97362140259248
DASOGUZ_REGION,41.143452001222904,58.705426950802675
DA_NANG,16.079399726169573,108.098893174496
DAEGU,35.79801682554686,128.53165961756633
DAEJEON,36.38185532292489,127.39038154702044
DAGANA_DISTRICT,26.97939426239591,89.84528620245926
DAGESTAN,43.02680513978175,46.90734618002501
DAJABON,19.426905694872328,-71.60167428112953
DAK_LAK,12.819726228954936,108.23216707817078
DAK_NONG,12.260054506329421,107.67231493478192
DAKAHLIA,31.08283201514895,31.607792538204436
DAKAR,14.740727788204822,-17.28310942831799
DAKHLA_OUED_ED_DAHAB,22.8884459149691,-14.4589797845924
DAKHLET_NOUADHIBOU,20.457425010916527,-15.982953111903658
DALARNA,60.93115153964974,14.36033522194861
DAMAN_AND_DIU,20.402891341078753,72.861408392794
DAMASCUS_GOVERNORATE,33.51452241476445,36.28892707468859
DAMBOVITA,44.85017861561657,25.540313238161332
DAMIETTA,31.37743913636368,31.788793864511995
DAR_ES_SALAAM,-6.951555619289992,39.218513426618735
DARAA,32.85435415931807,36.244703101210455
DARKHAN_UUL,49.3616882936854,106.27429908772339
DAYKUNDI,33.682221469331274,66.25470027112569
DEBUB_REGION,14.79431911343868,38.88813037099152
DEDEDO,13.560382161203107,144.84779723888545
DEIR_EZ_ZOR,35.19018688430754,40.25711719107664
DELAWARE,38.97030171817882,-75.51185756451436
DELHI,28.641351299808733,77.13374664543197
DELTA,5.7236296525951404,6.025373429282206
DELTA_AMACURO,8.792390235802065,-61.32366674797051
DEMBENI,-12.850588916724194,45.18224480058611
DEMERARA_MAHAICA,6.469140145106331,-58.1254363427729
DENGUELE,9.586225047511208,-7.3909754468219955
DENIGOMODU,-0.5223473271367257,166.91641985124156
DENNERY,13.91340540331401,-60.966210121696314
DEPARTEMENT_DE_L'OUEST,18.52297399114279,-72.31313970023739
DEPARTEMENT_DE_LA_GRANDE_ANSE,18.44367288099178,-73.98707729449202
DEPARTEMENT_DES_NIPPES,18.403694323502126,-73.35292599206853
DEPARTEMENT_DU_NORD,19.595950401672397,-72.2836930041256
DEPARTEMENT_DU_SUD_EST,18.245500568349968,-72.36176540146445
DERNA,31.889202110592795,22.547931502776198
DEVONSHIRE,32.301986325733424,-64.7549387677083
DHAALU,2.677653557702835,72.90724282245039
DHAKA,23.806120720697827,90.25747317518433
DHAMAR_GOVERNORATE,14.613695141965453,44.192835612544805
DHI_QAR,31.20353411839274,46.32921341672556
DHOFAR,18.33987779051379,54.10160019142998
DIANA,-13.312434086237888,49.0099873098423
DIBER_COUNTY,41.609255805828234,20.274234928375314
DIEGO_MARTIN,10.699753532970634,-61.513948393288196
DIEN_BIEN,21.730345816935856,103.00656531284713
DIFFA,15.864100570779106,13.227576960829003
DIKHIL,11.356236524678769,42.20710515095486
DILI,-8.553687670673156,125.6529363590365
DIOURBEL,14.739770993832037,-15.997009608172991
DIRE_DAWA,9.610188222491514,41.941788962439915
DISTRICT_AUTONOME_D'ABIDJAN,5.351455946541081,-4.076941458313741
DISTRICT_AUTONOME_DE_YAMOUSSO*,6.794854245675559,-5.260445593832523
DISTRICT_OF_COLUMBIA,38.872984244612475,-77.02265740201915
DISTRICT_OF_FERIZAJ_(05),42.298582559315705,21.136042444495363
DISTRICT_OF_GJILAN_(06),42.48607902704213,21.51044395443971
DISTRICT_OF_MITROVICA_(02),42.94635093396045,20.769298690725496
DISTRICT_OF_PEJA_(03),42.66702512155261,20.32709447424254
DISTRICT_OF_PRISHTINA_(01),42.745617565372235,21.123056410087102
DISTRICT_OF_PRIZREN_(04),42.26402666406731,20.72014364042815
DISTRICTS_OF_REPUBLICAN_SUBORDINATION,38.9207799758661,70.16449251424629
DISTRITO_CAPITAL,10.464365328466561,-66.97638605126298
DISTRITO_NACIONAL,18.483890287615434,-69.95066812045755
DIYALA,33.971398323564486,45.12903683999453
DJELFA,34.294279937099,3.563076068471021
DJIBOUTI,11.551204954951677,43.01178344100188
DNIPROPETROVSK_OBLAST,48.29140923933366,34.85181576841552
DOBRICH,43.67145427795754,27.87355080120138
DODOMA,-5.928162936546824,35.97641416238696
DOHA,25.29058338170766,51.53163427362299
DOHUK,36.939015204512756,43.36009250701401
DOLJ,44.14423158885237,23.575495492737705
DOLNOSLASKIE,51.115194738100385,16.37714387305828
DOMAGNANO,43.95259019979207,12.488094333870299
DONEGAL,54.84287940077953,-8.107786316809305
DONETSK_OBLAST,48.018186094960924,37.6741351749358
DONG_NAI,11.04010787482681,107.20485771675385
DONG_THAP,10.564704462399025,105.59828401647759
DONGA,9.39803508572784,1.7868376679330533
DORNOD,48.141784158565706,115.43512027969544
DORNOGOVI,44.42522496458889,109.80285279763739
DOSSO,13.182300470561756,3.524790596586168
DRAA_TAFILALET,31.20726347234893,-5.327087208513695
DRENTHE,52.85554902205529,6.571178566577531
DUARTE,19.256502945565273,-70.06475188060412
DUBAI,24.98895019989051,55.33928249863371
DUBLIN,53.37026254292983,-6.285834685533016
DUBROVNIK_NERETVA,42.777867910221936,17.98639152826453
DUNDGOVI,45.53054605100263,106.29201338912056
DURANGO,24.930000665183037,-104.90531762433521
DURAZNO,-32.99481346069089,-56.02441763644056
DURRES_COUNTY,41.46476958416918,19.680014424575333
DUSHANBE,38.519451834372816,68.76424917599059
DZAOUDZI,-12.778679211934351,45.283626556396555
EAST,5.486519432376201,14.557995998083
EAST_AZERBAIJAN,37.99823537655387,46.71549249682565
EAST_BERBICE_CORENTYNE,3.3584127061773303,-57.68326055964786
EAST_DARFUR_STATE,10.99679176362011,26.468275433673536
EAST_END,19.32465963618402,-81.13740031789877
EAST_GRAND_BAHAMA,26.684663265163312,-78.287696813444
EAST_JAVA,-7.73300668379461,112.682880140705
EAST_KALIMANTAN,0.41857758163892744,116.4745222074295
EAST_KAZAKHSTAN_REGION,48.80263046083017,81.5897488684386
EAST_NEW_BRITAIN,-4.969944899347058,151.7548871936417
EAST_NUSA_TENGGARA,-9.339394303159978,122.15538177587891
EAST_REGION,1.3451916398902168,103.91214174764181
EAST_SEPIK,-4.298726196849163,143.17275590349564
EASTERN,25.512985645033368,43.83350755524748
EASTERN_CAPE,-32.16054948740625,26.40852693006461
EASTERN_EQUATORIA,4.879057749513302,33.63244813715392
EASTERN_HIGHLANDS,-6.439827810140237,145.5466336555639
EASTERN_PROVINCE,3.6145863579968043,58.91651783720518
EBON,4.575068260965061,168.7050483795229
EBONYI,6.248435854519827,7.9801127024548615
EDO,6.582104354995818,5.934988179443394
EGEAN,39.17247536519223,26.20485152965937
EHIME,33.65958204488211,132.90897374140422
EKITI,7.714951681704621,5.352853577749819
EL_BAYADH,32.5776190836981,0.9066582281128369
EL_KEF,36.018477918094284,8.654619472210886
EL_ORO,-3.5164222609140747,-79.81478368347273
EL_OUED,33.312136771444315,6.975905496526499
EL_PARAISO,14.021249128808176,-86.41849045510357
EL_PROGRESO,14.90079012480161,-90.09303201717381
EL_SEIBO,18.801267324078488,-69.03672459027331
EL_TARF,36.681606745480174,8.106112833427424
ELBASAN_COUNTY,41.05628657773394,20.184480424585935
ELEGEYO_MARAKWET,0.9193033672526615,35.50239849085999
ELIAS_PINA,18.972111033425858,-71.56890155442343
EMBU,-0.5345962363456275,37.56748889494679
EMILIA_ROMAGNA,44.537047944749396,11.030917625737679
ENCAMP,42.5259716505288,1.6516324051626308
ENEWETAK,9.767836544871363,160.97867689848252
ENGA,-5.418714443206769,143.46353241000807
ENGLAND,52.589072760498546,-1.4872527898212764
ENNEDI_EST,17.819547836797383,23.132722462152987
ENNEDI_OUEST,18.44689496733561,21.141821006307307
ENTITY_FEDERATION_OF_BOSNIA_AND_HERZEGOVINA,44.04352673336157,17.47872480553423
ENTRE_RIOS,-31.999047758801552,-59.211926166608436
ENUGU,6.544283417908854,7.407491076403498
EPIRUS_WESTERN_MACEDONIA,40.02353077014944,21.14840571762144
EQUATEUR,0.21238035438773173,18.875713942579925
ERBIL,36.35279539090493,44.214858639086664
ERMERA,-8.788146589614492,125.38543934387961
ERONGO_REGION,-22.093060764518093,15.247878647361734
ESCALDES_ENGORDANY,42.49308353848864,1.5797279943167113
ESCHEN,47.20335161686174,9.544976079997712
ESCUINTLA,14.18682607698106,-90.95270043781632
ESMERALDAS,0.6702591121750043,-79.25121904776069
ESPAILLAT,19.53607594433663,-70.37129682599809
ESPIRITO_SANTO,-19.598569002281856,-40.67795513844431
ESSEQUIBO_ISLANDS_WEST_DEMERARA,6.5213409358083565,-58.458415403778595
EST,12.228624290606934,0.9465329691084385
ESTELI,13.125060178887969,-86.38138974975512
ESTUAIRE,0.3065052797878966,10.010542536843138
EVORA,38.581826782346944,-7.78692657959902
EWA,-0.5051408734881124,166.9356397592632
EXTERNAL_TERRITORIES,-10.477756726020727,105.63806772688876
EXTREMADURA,39.19794110590649,-6.117435606007967
EXUMA,23.595559690206716,-75.94187807505618
EYSTUROYAR,62.24015681,-7.046176276666667
FA'ASALELEAGE,-13.655512476034781,-172.2713017079544
FAAFU,3.0698269046753546,72.89694865214332
FAETANO,43.932480180669145,12.490140116042662
FAIYUM,29.306609130887157,30.520555709838458
FALCON,11.019006605858177,-69.74512561155882
FAMAGUSTA,35.35095778101334,33.927472156002466
FAR_NORTH,10.966397692142893,14.525367206724479
FARAH,32.615954564500754,62.36575546702851
FARANAH,10.482118203199862,-10.68238014400174
FARO,37.2537601896466,-8.200347680938503
FARS,29.170996239124033,53.25565857475032
FARWANIYA,29.245355041787196,47.91152789363372
FARYAB,36.04204688256809,64.89501928863027
FATICK,14.188338240980997,-16.31416465743697
FEDERAL_CAPITAL_TERRITORY,8.942172106263673,7.181945669272864
FEDERAL_DEPENDENCIES,10.93623597657273,-65.31293532409546
FEDERAL_DISTRICT,-15.785100009029495,-47.80060414246214
FEDERALLY_ADMINISTERED_TRIBAL_AREAS,33.273426750070215,70.46859921747085
FEJER,47.14430095253298,18.518107900721585
FERGANA_REGION,40.479395260620294,71.30170857479439
FEZ_MEKNES,33.76638035077169,-4.507411749519932
FIER_COUNTY,40.740997285271604,19.646290531837888
FINLAND_PROPER,60.670166677791386,22.602641905457784
FIORENTINO,43.909894456634554,12.456821695618853
FLACQ,-20.226331583671694,57.701345606505576
FLANDERS,51.02223339876035,4.223782586508536
FLEVOLAND,52.452141656371175,5.590099378920591
FLORES,-33.61848836869254,-56.84475778580137
FLORIDA,23.91556762455098,-80.48713990810973
FORMOSA,-24.90731003502077,-59.92567068509218
FORT_DE_FRANCE,14.637229131332997,-61.040997446863265
FRANCISCO_MORAZAN,14.285569163077934,-87.18683086286174
FREE_STATE,-28.591235299553126,26.89880630387475
FRIBOURG,46.77958277269138,7.1428868187136425
FRIESLAND,53.08485525580516,5.915662659597025
FRIULI_VENEZIA_GIULIA,46.12462956322409,13.134920981366593
FUJAIRAH,25.34637891077174,56.20918253673258
FUJIAN,26.115393398183535,117.97827908243768
FUKUI,35.8171304005127,136.1696748794987
FUKUOKA,33.471302589875116,130.6735695134684
FUKUSHIMA,37.39896300303481,140.10971514304757
GABES,33.83129028829453,9.818061327111726
GABROVO,42.91181739997171,25.236744491413944
GABU,12.11351743014284,-14.078284968008063
GAFSA,34.439919079902005,8.798161012983593
GAGA'EMAUGA,-13.565451546447541,-172.33138094731905
GAGA'IFOMAUGA,-13.544479282140156,-172.49628404037253
GAGAUZIA,46.17067404516931,28.70528719803748
GALAPAGOS,-0.20303280250378536,-91.23968544139824
GALATI,45.78072816189269,27.836461290717722
GALGADUUD,5.1010035724650615,46.78729451819211
GALICIA,42.726967051603125,-7.938642720651902
GALWAY,53.350845557079744,-8.787005869387906
GAMBELA,7.717189958644748,34.34151531948995
GAMPRIN,47.210045951034566,9.519700260673053
GANGWON_DO,37.71796367918814,128.2774849376284
GANSU,37.84442006193088,100.63886767733585
GAO,16.76544427342038,1.2999804701070106
GARISSA,-0.5135656413782103,40.19955227810209
GASA_DISTRICT,27.985864288134753,89.87928273710303
GASH_BARKA_REGION,15.186370342933172,37.43283121486614
GAUTENG,-26.07379589058135,28.133179271276177
GAVLEBORG,61.452321874238855,16.274142390777325
GAZA,-23.30924160255103,32.78896343081122
GBARPOLU,7.384231351684758,-10.323693354966533
GEDARIF_STATE,14.108667184642059,34.994263201973155
GEDO,2.8814245839813886,41.96379845801674
GEGHARKUNIK,40.30424070734763,45.34515825957958
GEITA,-3.2238626558110086,31.900542311085378
GELDERLAND,52.08492329506372,5.865197026258166
GENEVA,46.228727762216955,6.128857103038838
GEORGE_TOWN,19.302608758143,-81.34140605769149
GEORGIA,32.64723476623316,-83.4276097851094
GEZIRA_STATE,14.565401801049335,33.26555247583448
GHANZI_DISTRICT,-22.298272698461616,22.600535590112617
GHARBIYYA,30.83261877333826,31.028897806116483
GHARDAIA,31.185605685159317,3.1537394618842995
GHAT,26.036324690150394,10.599523530536546
GHAZNI,33.388960947272345,67.81388943582873
GHOR,34.22895830604109,64.92702569131202
GIA_LAI,13.793393749478083,108.23553197983074
GIFU,35.713756134854336,136.96028237357666
GILAN,37.218213403879936,49.597199234860646
GILBERT_ISLANDS,0.4530776556447577,173.88819737908565
GILGIT_BALTISTAN,35.87168263390388,74.88822570677719
GISBORNE,-38.29233277535454,177.9155986843279
GITEGA,-3.4713233796138403,29.903471894411883
GIURGIU,44.13387615051102,25.881721417466114
GIZA,28.900585919596796,29.511842811072267
GJIROKASTER_COUNTY,40.222973111664274,20.231739061821262
GLACIS,-4.588506294552214,55.44525873235106
GLARUS,46.96741262659021,9.050327300880674
GOA,15.427971229361592,73.97829849500624
GOH_DJIBOUA,5.937778327786555,-5.601574002157786
GOIAS,-16.08458838598709,-49.65498901142483
GOLESTAN,37.31394605629265,55.08081516461332
GOMBE,10.353828707063446,11.159929211654799
GORENJSKA,46.299211061549585,14.113170286558587
GORGOL,16.051577616448444,-12.873303206430494
GORIVKA,46.02437707958528,13.844891035889631
GORJ,45.009776902006934,23.284957068785975
GORNO_BADAKHSHAN_AUTONOMOUS_REGION,38.093303358105295,72.88011392841322
GORONTALO,0.7025124265723398,122.33691978716978
GOTLAND,57.43993748785587,18.494992082413813
GOVI_ALTAI,45.32444692767408,95.92281690735878
GOVISUMBER,46.53980942800514,108.52837247118933
GRACIAS_A_DIOS,15.229378975783636,-84.34859650777472
GRANADA,11.886611239025768,-85.90663003175253
GRAND'ANSE,-4.677279431363063,55.464207408743476
GRAND_ANSE,-4.32339106400744,55.70870382622878
GRAND_BASSA,6.227333272362781,-9.784804382401665
GRAND_CAPE_MOUNT,7.093030528576236,-11.012242702746528
GRAND_CAY,27.232654843676546,-78.33222888551974
GRAND_EST,48.68938828130321,5.666206159083011
GRAND_GEDEH,5.941608480566427,-8.189162081010936
GRAND_KRU,4.827921216117145,-8.21394824404001
GRAND_PORT,-20.389415246230577,57.640612933013735
GRANDE_COMORE,-11.675370627639193,43.34102904733213
GRANMA,20.27466705721197,-76.89009550295597
GREATER_ACCRA,5.789341373805943,0.016178985095792256
GREEN_TURTLE_CAY,26.778742278054974,-77.33345305973263
GREENLAND,77.71374510263988,-35.655306502083846
GRENADINES,13.009084809848872,-61.23158251085276
GRISONS,46.63078508777694,9.559969189602304
GRONINGEN,53.12942379326697,6.749900051715113
GROS_ISLET,13.992878774387364,-60.92628348642365
GUADALCANAL_PROVINCE,-9.656168563308086,160.17468725835823
GUAINIA,2.7329653291061757,-68.81403188790675
GUAIRA,-25.84836614715378,-56.31086746332572
GUAM,13.44258399743396,144.77833854125993
GUANAJUATO,20.867802460313825,-101.06128537096374
GUANGDONG,23.36019678964939,113.40934954907969
GUANGXI,23.82335145367629,108.78771293353043
GUANTANAMO,20.210874781425716,-74.9179133942596
GUARDA,40.612755412804624,-7.29765955146867
GUARICO,8.81563948173878,-66.5546987128696
GUATEMALA,14.6204426478346,-90.49188379923578
GUAVIARE,1.934489058883576,-72.13103346116468
GUAYAS,-2.0753728322948435,-79.9056644176498
GUELMA,36.4075588932625,7.391529896160975
GUELMIM_OUED_NOUN,28.366349242335044,-9.939891892083248
GUERA,11.462332616016468,18.635257112181392
GUERRERO,17.65203542230189,-99.9196067330757
GUIDIMAKHA,15.311869433342078,-12.171127319383343
GUIZHOU,26.82792485784314,106.89123530391674
GUJARAT,22.632101497610766,71.68134210895906
GULF,-7.396071606265287,144.91933767069406
GUNMA,36.45786377666002,139.12056991911572
GURIA,41.95816930197518,42.151957220973685
GWANGJU,35.15704159553252,126.84159537447792
GYOR_MOSON_SOPRO,47.64210915970505,17.33492763763786
GYEONGGI_DO,37.53970239930084,127.22412379069057
GYEONGSANGBUK_DO,36.347818143762176,128.70690557202883
GYEONGSANGNAM_DO,35.38743630435124,128.31102815212282
HA'APAI,-19.742404389282616,-175.07426016584856
HA_GIANG,22.789276613593948,104.98334375913109
HA_NAM,20.533625572836392,105.9775656074948
HA_NOI,20.99428078363188,105.7092839919021
HA_TINH,18.309541019232988,105.75317271245721
HAA_ALIF,6.816602320077928,73.2086445299758
HAA_DHAALU,6.763399049110276,73.17574668148747
HAA_DISTRICT,27.302636746538578,89.1835753164004
HADHRAMAUT,16.689934706966778,49.13388167918567
HADJER_LAMIS,12.569657517693276,16.201875640767483
HAGATNA,13.474031328431053,144.7510470464812
HAI_DUONG,20.95940639307603,106.36995268280684
HAI_PHONG,20.809140818974164,106.59567034365975
HAIFA,32.58613309583178,35.04517045606132
HAINAN,19.161217335112482,109.7246412629504
HAJDU_BIHAR,47.49500781547415,21.42121113167928
HAJJAH_GOVERNORATE,16.054307990822373,43.27249752422125
HALABJA,35.32202344530864,45.878482301403174
HALLAND,56.91798397172392,12.929826652645584
HAMA,35.242099656244434,37.05640119497896
HAMADAN,34.94390998423064,48.55062540884903
HAMBURG,53.515134087188834,9.93851219360893
HAMGYONGNAM_DO,40.204536595517304,127.70632296213482
HAMILTON,32.328315876418266,-64.71452523737956
HAMILTON_MUNICIPALITY,32.29280726114913,-64.78806050618482
HANOVER,18.358396286993003,-78.0833279370062
HARARE,-17.78011911979873,30.97471858526657
HARDAP_REGION,-24.51839553736459,17.449428923124625
HARERI,9.267142683938296,42.17872472226691
HARGHITA,46.55733728800045,25.526288629320042
HARJU_MAAKOND,59.22025988643831,24.821812447440443
HARYANA,29.29791773661861,76.30733667697673
HASKOVO,41.845269353719395,25.898614826619845
HATO_MAYOR,18.90951760132745,-69.37638206311303
HAU_GIANG,9.792914629498306,105.61399391747449
HAUT_KATANGA,-10.501249165337834,27.831740477112433
HAUT_LOMAMI,-8.185133846051237,25.4455394901048
HAUT_MBOMOU,6.294678453594247,25.59275041041855
HAUT_OGOOUE,-1.3462765748393182,13.724041690324256
HAUTE_KOTTO,7.395690690701788,22.88184653978564
HAUTS_BASSINS,11.378259802024541,-4.364007764069487
HAUTS_DE_FRANCE,49.98039820589365,2.73313013175626
HAVANA,23.05635566381389,-82.35878847811448
HAWAII,19.764880560703656,-155.6701908322604
HAWALLI,29.301103420206747,48.027599744192045
HAWKE'S_BAY,-39.366866515850205,176.7097542953974
HAYEL,27.351615022900003,41.39502881350946
HEBEI,39.541120000744215,116.11787378948121
HEILONGJIANG,47.90550620062839,127.73923491383594
HELA,-5.628667800527965,142.67623470044327
HENAN,33.900191341775994,113.64783767924388
HERMANAS_MIRABAL,19.36639650355058,-70.3571837417911
HESSE,50.6108211914033,8.95272787737705
HEVES,47.79983043212432,20.111261101625534
HHOHHO,-26.04030755118604,31.389370393092918
HIDALGO,20.465524799363042,-98.8844815203053
HIIRAAN,4.244033254490684,45.47036543232307
HIIU_MAAKOND,58.875743839865464,22.717326680721396
HILMAND,31.224217765847797,64.0708431599975
HIMACHAL_PRADESH,31.912153423522213,77.24136521451807
HIRAT,34.21735305436784,62.16926106275892
HIROSHIMA,34.63402959984328,132.76451521380017
HOA_BINH,20.713822807908336,105.28686783236654
HODH_ECH_CHARGI,18.13826536034451,-7.086268574035517
HODH_EL_GHARBI,16.61466956648792,-9.86482268397922
HOKKAIDO,43.35044709370056,142.46115685809724
HOLGUIN,20.720023272920198,-75.91560817715238
HOMA_BAY,-0.517445115450215,34.36655683954768
HOMEL_REGION,52.25062705680453,29.60052311226015
HOMS,34.36112984166723,38.29510672120974
HONG_KONG,-4.687761499557618,17.397426758689424
HOPE_TOWN,26.69621389130126,-77.15864003635285
HORMOZGAN,27.05611136297003,56.45828829147677
HOUAPHAN,20.33725410960052,104.0355619178375
HOVEDSTADEN,55.80631278968099,12.355536474510327
HOVSGEL,50.21823068765534,99.97425025438807
HRODNA_REGION,53.70213384944904,25.078308423554162
HSINCHU,24.76600715319092,120.91780402121813
HSINCHU_COUNTY,24.67139396392011,121.1498716315623
HUALIEN_COUNTY,23.82896937647519,121.3917859036026
HUAMBO,-12.540790434377318,15.71381946111706
HUANCAVELICA,-12.994891551270765,-74.9998066369016
HUANUCO,-9.408589820111306,-76.06718363386815
HUBEI,30.976210993986793,112.28128588197677
HUEHUETENANGO,15.654296935313363,-91.56898583301484
HUILA,-11.491342044130834,-2.0601316705139063
HUNAN,27.603098343045854,111.71145800280755
HUNEDOARA,45.712982531161224,22.90436737644899
HUNG_YEN,20.802164573024807,106.10627707593585
HWANGHAEBUK_DO,38.50728415345163,126.35577392922254
HWANGHAENAM_DO,38.19076823797362,125.50719415581901
HYOGO,35.11616648710486,134.81842196872572
IALOMITA,44.61381453159759,27.18802013951085
IASI,47.18877624571841,27.31010362771987
IBARAKI,36.3494457313683,140.399803943285
IBB_GOVERNORATE,14.100249404882659,44.18275803124258
ICA,-14.221093003036474,-75.57399780370781
IDA_VIRU_MAAKOND,59.228917155874804,27.273798229789072
IDAHO,44.391559241540826,-114.68099884932198
IDLIB,35.82935043101991,36.673425320011155
IHOROMBE,-22.53753855215589,46.12665570699079
ILAM,33.11180840257912,46.8992590128487
ILE_DE_FRANCE,48.71603614869354,2.5264941210335787
ILES_AUSTRALES,-21.817058109333054,-138.81746858196857
ILES_DU_VENT,-17.665648778279564,-149.41525777180988
ILES_MARQUISES,-9.749842643737756,-139.01021321614576
ILES_SOUS_LE_VENT,-16.836573918660406,-151.44018554687497
ILES_TUAMOTU_GAMBIER,-16.11926518298047,-145.60157561461438
ILFOV,44.539915853676156,26.144185002087397
ILLINOIS,40.12471755485178,-89.12927803840488
ILLIZI,26.781115930510843,8.305523652009683
IMBABURA,0.4413128829696922,-78.38319240232244
IMERETI,42.19827182069744,42.95433612196226
IMO,5.554609208701607,7.0292253692134885
INAGUA,21.04200855792249,-73.319160047457
INARAJAN,13.295075272189905,144.72243390031682
INCHEON,37.52330438364301,126.69786239517319
INCHIRI,20.053050238794462,-14.996955174794278
INDEPENDENCIA,18.399075703929416,-71.56754495344343
INDIANA,39.90636408715761,-86.28205962157399
INGUSHETIA,43.01127138678651,44.87160589390325
INHAMBANE,-22.770172466859307,34.50226260003063
INNER_KARTLI,41.957128414700804,43.99808964125978
INNER_MONGOLIA,44.07708255251413,113.94780735868096
INNLANDET,61.40778425887852,10.456335084932842
INTIBUCA,14.300760141163758,-88.22091035966399
IOWA,42.08703913834567,-93.49854842605876
IRBID,32.39847833763481,35.715074155635875
IRINGA,-7.83397197962221,35.491408890897254
IRKUTSK,57.114737653280194,106.38701906500143
ISABEL_PROVINCE,-7.990126727795616,159.13607568305267
ISFAHAN,33.14080562335398,52.49903558767812
ISHIKAWA,36.4468214729348,136.6718063209522
ISIOLO,0.9880974945407764,38.528721749168774
ISLAMABAD_CAPITAL_TERRITORY,33.68135947976671,73.03792714662657
ISLE_OF_YOUTH,21.599115170995592,-82.84100388928401
ISMAILIA,30.527049895836775,32.337220940575705
ISSYK_KUL_REGION,42.18951398858304,77.91296724866568
ISTRIA,45.226578903558305,13.890582701990034
ITAPUA,-26.7812110662921,-55.771737483206685
ITASY,-19.044938926351804,46.834614760681596
ITURI,1.7146017432416953,29.409101700622617
IVANO_FRANKIVSK_OBLAST,48.67965913277718,24.61219125578136
IVANOVO,57.01211049945453,41.75679915340841
IWATE,39.632095743754036,141.33981382189302
IZABAL,15.511284286725234,-89.04845234411755
JABAL_AL_AKHDAR,32.082714126446284,21.749999180770676
JABAL_AL_GHARBI,30.472332235423412,12.994493866454606
JABAT,7.744153457384476,168.98174910196943
JABLANICA_DISTRICT,42.90997072315864,21.93517356205846
JAFARA,32.569926074188814,13.081184643939444
JAHRA,29.45399291183887,47.35661543764169
JAKARTA,-6.166212837509137,106.82435808493096
JALAL_ABAD_REGION,41.592783240681044,72.21236147377937
JALAPA,14.627211367878013,-89.95689931625994
JALISCO,20.623230105248865,-103.6258524600655
JALUIT,5.7915826187777295,169.59986193382224
JAMBI,-1.7203011193586943,102.74861765194211
JAMBYL_REGION,44.32915783126896,72.13245100125046
JAMMU_AND_KASHMIR,34.09345204071284,77.18119643730373
JAMTLAND,63.229158259653175,14.346453311639422
JANJANBUREH,13.55318034658067,-14.770288578025298
JARASH,32.22586710909232,35.89215134134851
JARVA_MAAKOND,58.90025385504837,25.621613143767625
JASZ_NAGYKUN_SZOLNOK,47.28491616341998,20.37799460192466
JAWZJAN,36.85193846531376,65.90780503038512
JAZAN,17.340379113227996,42.64208465478078
JEJU_DO,33.352864789442606,126.4473729199396
JENDOUBA,36.60268748156371,8.662154454512093
JEOLLABUK_DO,35.71218498461987,127.20679872617988
JEOLLANAM_DO,34.94615371180851,127.00409665087848
JERUSALEM,31.757702340092376,35.03742812953442
JEWISH_AUTONOMOUS,48.533945690975706,132.26890166434708
JHARKHAND,23.65467131249586,85.62035898869627
JIANGSU,32.92670554772501,119.44618327067492
JIANGXI,27.620574367788986,115.710749541362
JIGAWA,12.314858389248217,9.58066935815927
JIHOCESKY_REGION,49.09130464901514,14.504283984840628
JIHOMORAVSKY_REGION,49.059537832183715,16.69331275487862
JIJEL,36.6978901796551,6.003099507392434
JILIN,43.66222288800026,126.23677705332697
JINOTEGA_(DEPARTAMENTO),13.78407157194454,-85.51216426597743
JIWAKA,-5.810563250205704,144.59594229889947
JIZZAKH_REGION,40.37077491142074,67.62271271294719
JOGEVA_MAAKOND,58.725718713115555,26.457328037985626
JOHOR,2.0742085608144487,103.3451445271797
JONGLEI,7.380315128489522,32.332893071069044
JONKOPING,57.51762399576423,14.339346598225772
JOST_VAN_DYKE,18.445695241292338,-64.7516199747721
JUFRA,27.96715207823546,17.047491933277996
JUGOVZHODNA,45.73370946033375,15.002047527290534
JUJUY,-23.275065527996702,-65.77162056125262
JUNIN,-11.538680053667136,-74.87385055928375
JURA,47.33385062385146,7.190866608280958
JUTIAPA,14.204789608857588,-89.89130831913064
KABARDINO_BALKARIA,43.43270825627159,43.39471642815649
KABUL,34.52800438785496,69.39781313894814
KACHIN,26.101358699532312,97.33018752400335
KADUNA,10.367632670472368,7.729315897681966
KAFFRINE,14.231757666914518,-15.219078392887328
KAFR_EL_SHEIKH,31.2529140362406,30.95204893515643
KAGAWA,34.19558682194722,133.97783030800275
KAGERA,-1.875353473714184,31.458226600123584
KAGOSHIMA,31.68318966670163,130.61063310055692
KAINUU,64.50238080502075,28.511138867552916
KAIROUAN,35.616940881356655,9.941922304954804
KAJIADO,-2.112792611054972,36.8997102139538
KAKAMEGA,0.4353924055826154,34.70242115281399
KAKHETI,41.76426194897706,45.843687399135625
KALASIN,16.639414898460437,103.6565536181891
KALININGRAD,54.71421372268088,21.411519498509595
KALMAR,57.189616000060134,15.937743884505588
KALMYKIA,46.40503992556868,45.34322051180326
KALUGA,54.39293357517853,35.484023346718544
KAMCHATKA_KRAI,58.92501155542906,163.04038327309974
KAMPHAENG_PHET_PROVINCE,16.33123159663054,99.48396142481246
KAMPONG_CHAM,12.106836616455665,105.26776122608447
KAMPONG_CHHNANG,12.1751990827073,104.55086844903995
KAMPONG_SPEU,11.600487030791907,104.31574161644467
KAMPONG_THOM,12.78834850591902,105.02481710907878
KAMPOT,10.798117474720422,104.29606114622773
KANAGAWA,35.440762606811944,139.2636081128719
KANCHANABURI_PROVINCE,14.622580982204896,99.05080705845941
KANDAHAR,31.029763344388,65.64005570604473
KANDAL,11.386547768548015,104.98433900108903
KANEM,15.13318536061944,15.276747794431154
KANGWON_DO,38.73345109960551,127.38711529834141
KANI_KELI,-12.96323427871396,45.119735091588296
KANIFING,13.446085614975177,-16.64966832734298
KANKAN,10.542878302069711,-9.358992906387144
KANO,11.77142505387114,8.502999509036618
KANSAS,38.48459041239549,-98.37702071007362
KAOHSIUNG,22.96735772008972,120.6300943068974
KAOLACK,13.97585692375799,-15.949536996473931
KAPISA,34.93549742477213,69.62001834017664
KARA_REGION,9.613475091185238,0.9295918860756839
KARACHAY_CHERKESSIA,43.79882782398089,41.80950103996346
KARAGANDA_REGION,48.20804331738328,70.95867056011032
KARAK,31.116110562503327,35.76042635097847
KARAS_REGION,-26.940280310209175,17.619729971640226
KARBALA,32.471626872541506,43.81373322873332
KARDZHALI,41.5352744926575,25.406796315233116
KARLOVAC,45.31803050548762,15.501555318301948
KARLOVARSKY_REGION,50.17774720696061,12.706868119429295
KARNATAKA,14.71377100079793,76.15224918716908
KARUZI,-3.136658095089359,30.127995690214938
KASAI,-4.994965446083731,21.09742533575172
KASAI_ORIENTAL,-6.146721110336852,23.55260128386296
KASSALA_STATE,15.662802902452588,35.812354407510014
KASSERINE,35.24612854058381,8.749659556628895
KATAVI,-6.4808133379927035,31.389716448774173
KATSINA,12.383417600827283,7.652166540277819
KAUNAS,55.066608027079475,23.920739128255118
KAVANGO_EAST_REGION,-18.453885239550207,20.584162893851776
KAVANGO_WEST_REGION,-18.281307842149534,18.804790744923682
KAYAH,19.26077910856952,97.39656308235422
KAYANGEL,8.082612104512412,134.71919791596255
KAYANZA,-2.9992146869539553,29.668794626638395
KAYES,13.848398850007584,-10.209730390381454
KAYIN,17.315820167743308,97.69359991778151
KEBBI,11.748206291323308,4.530350611877771
KEBILI,33.313066169751266,8.856955509720954
KEDAH,5.90743063504714,100.57485628019421
KEDOUGOU,12.841362398426188,-12.234243517894193
KEELUNG,25.12185860057332,121.74558984153255
KELANTAN,5.30965762911617,102.0235862642278
KEMEROVO,54.81555259238101,87.18532377845331
KEMO,5.752088310734143,19.2466712805145
KENTUCKY,37.53495858176554,-85.18811029754448
KEP,10.52426824524715,104.35402174712142
KERALA,10.492228302424065,76.40918937265637
KEREWAN,13.512235738634162,-16.0245537686776
KERICHO,-0.2756374915115944,35.31555347075094
KERMAN,29.613758125597304,57.312287408422335
KERMANSHAH,34.44041016242727,46.680169149682676
KERRY,52.11405364107368,-9.740490718843008
KESKI_POHJANMAA,63.58278991590504,24.01099068408738
KGALAGADI_DISTRICT,-24.867407817624997,21.79074949236184
KGATLENG_DISTRICT,-24.156375240410956,26.31555917966032
KHABAROVSK_KRAI,54.797567228559565,137.30789230793695
KHAKASSIA,53.36548427031015,89.91806102374774
KHAMMOUANE,17.56860533493753,105.28444083200525
KHANH_HOA,12.351408585118188,109.0606813833509
KHANTY-MANSIYSK,61.86115754302779,70.24554636660622
KHARKIV_OBLAST,49.59524584079717,36.55570604216128
KHARTOUM_STATE,15.909840959185845,32.89787372960644
KHATLON_REGION,37.828339747796505,69.16067614207009
KHENCHELA,34.993330561005024,7.025315758176655
KHENTII,47.89038271147323,110.41367067827039
KHERSON_OBLAST,46.69550455149288,33.62145268283296
KHMELNYTSKYI_OBLAST,49.48271222517043,26.976734674844682
KHOMAS_REGION,-22.897808452873058,17.171988789663022
KHON_KAEN_PROVINCE,16.430261253679877,102.61976133426049
KHOST,33.353887677955754,69.84653983057768
KHOVD,46.880573218199046,92.29993201651234
KHULNA,23.136022386848058,89.23266649968491
KHUZESTAN,31.445354538567155,49.001460101229206
KHYBER_PAKHTUNKHWA,34.44160038112526,72.03555360040583
KIAMBU,-1.084038724875064,36.868968294151856
KIDAL,19.46652583224275,1.1317714357375097
KIE_NTEM_PROVINCE,1.9916102134967117,10.846432353731423
KIEN_GIANG,9.962436723776765,105.08650026386131
KIGALI,-1.9442738485546347,30.08299265493386
KIGOMA,-4.833695257517747,30.427859806235666
KILDARE,53.17947520680039,-6.805639873778742
KILI,11.613531226891293,165.55265270017117
KILIFI,-3.1913287357953846,39.67459487863249
KILIMANJARO,-3.7664834387170623,37.667622708196326
KILKENNY,52.56400946059491,-7.247082354760725
KINDIA,10.25417106971142,-13.113974187541782
KINGSTON,17.96707843984219,-76.7553394434202
KINMEN,24.465506712325322,118.39451205167953
KINSHASA,-4.442839840260621,15.93403964398992
KIRINYAGA,-0.5254540816404166,37.248191292512786
KIRKUK,35.31150022433791,44.07528894424391
KIROV,58.61377810444622,49.84368822521055
KIROVOHRAD_OBLAST,48.47657949787774,32.080224219823045
KIRUNDO,-2.5205754281177932,30.101828941194416
KISII,-0.7641078577009034,34.80026071544481
KISUMU,-0.19320030785227243,34.82131022589383
KITUI,-1.4808072039433064,38.41153908570399
KLAIPEDA,55.813526498422675,21.581295028878962
KOCHI,33.44775399425358,133.3544239863242
KOGI,7.716567331433043,6.682002339897938
KOH_KONG,11.508670478430348,103.41997054862121
KOHGILUYEH_AND_BOYER_AHMAD,30.81073518227507,50.82267025825075
KOLDA,13.021105939773884,-14.399954994525704
KOLUBARA_DISTRICT,44.30661386404973,20.031946494910688
KOMAROM_ESZTERGOM,47.60598780869182,18.284491598532043
KOMI_REPUBLIC,64.1093902425196,54.743235754620045
KON_TUM,14.686609222153217,107.8888124300152
KONGO_CENTRAL,-5.253929161590672,14.38061115555072
KOPRIVNICA_KRIZEVCI,46.0758623611573,16.83684184696515
KORCE_COUNTY,40.66114995263302,20.623868976452705
KOROAKA,46.550033936826445,15.098653886159365
KOROR,7.271672089288381,134.4330283657099
KOSICE,48.68659762232671,21.351836539773227
KOSRAE,5.308288425644124,162.9584115086478
KOSTANAY_REGION,51.611421202873245,64.0136907455973
KOSTROMA,58.45000523553023,43.74844179716113
KOTAYK,40.39990674720617,44.665945701815545
KOUFFO,7.0211104586402175,1.7922228229211365
KOUILOU,-4.232484551861046,11.921970395715869
KOULIKOURO,13.576072078195162,-7.6529580131173365
KOUNGOU,-12.748675343196771,45.18117197609095
KRABI_PROVINCE,8.195939330397017,99.03702566436733
KRAJ_VYSOCINA,49.41327405016538,15.697439628905967
KRALOVEHRADECKY_REGION,50.41716896712438,15.8552122498233
KRAPINA_ZAGORJE,46.11510960031782,15.919889255080381
KRASNODAR_KRAI,45.270543149209544,39.469909699022324
KRASNOYARSK_KRAI,67.37352655458463,96.043025398038
KRATIE,12.699651054123892,106.1360516079039
KRONOBERG,56.77167771157866,14.55019790758484
KUALA_LUMPUR,3.13538650901627,101.70730147607405
KUFRA,23.783469215944965,22.27065094023656
KUJALLEQ,61.49329617835067,-44.537901244644964
KUJAWSKO_POMORSKIE,53.07884053865619,18.551525106501597
KUKES_COUNTY,42.18291250097719,20.25894091381095
KUMAMOTO,32.58801112631213,130.8539895406874
KUMGANG_GUN/KUMGANGSAN_TOURIST_REGION,38.56151484534068,128.007182930035
KUNAR,34.98459949409494,71.12704937345406
KUNDUZ,36.819470764699766,68.76338524104715
KUNENE_REGION,-19.144570233538893,13.941362767918514
KUNTAUR,13.64007638129829,-15.200991515263228
KURDISTAN,35.723536060850854,46.94915111925495
KURGAN,55.42273317267655,64.8538614811521
KURSK,51.71159420743623,36.13377513607833
KURZEME_REGION,56.93926414580043,22.07347863477617
KWAJALEIN,8.720923704309929,167.7318090452131
KWALE,-4.135685891380818,39.10713650913489
KWANGO,-6.451000129922694,17.893904071248926
KWARA,8.969209369736804,4.391715084123443
KWAZULU_NATAL,-28.754847208477724,30.713897441913545
KWENENG_DISTRICT,-23.874362576558546,24.716614895142577
KWILU,-4.764136289237599,18.634948864105787
KYIV,50.383108505575144,30.57946567195963
KYIV_OBLAST,50.248058729335376,30.49264233574563
KYMENLAAKSO,60.85116066962022,26.978481223756276
KYOTO,35.21901884665932,135.51486585132005
KYRENIA,35.29964475560014,33.37953912101078
KYUSTENDIL,42.288105489923545,22.85349104180022
KYZYLORDA_REGION,45.17631815506677,63.67376746695359
LA_ALTAGRACIA,18.66640527238495,-68.69488190568245
LA_ARAUCANIA,-38.63375275076552,-72.27919389533848
LA_DIGUE_A,-4.487336032090134,55.23639989796545
LA_GUAJIRA,11.418766716764289,-72.5339208375911
LA_LIBERTAD,-6.318416245549139,-79.21770688777646
LA_MASSANA,42.55105134513561,1.5033159198867179
LA_PAMPA,-37.13761112379827,-65.4723302727663
LA_PAZ,-14.456158132945363,-68.60757025067593
LA_RIOJA,-26.477282001075572,-64.32972013330277
LA_RIVIERE,-4.6139254090955575,55.453297302665945
LA_ROMANA,18.498009853962266,-68.9888066611218
LA_UNION,13.563341488031506,-87.90472246888734
LA_VEGA,19.061644907835042,-70.61696264687909
LAANE_MAAKOND,58.857239387279215,23.85916270013769
LAANE_VIRU_MAAKOND,59.24901647708671,26.219414542552073
LAAYOUNE_SAKIA_EL_HAMRA,26.33168050305309,-11.98684082849712
LABE,11.777471292693,-11.97133715331624
LABORIE,13.781109131682856,-61.00401436468477
LABUAN,5.33214773347125,115.22829322851923
LAC,13.617590605695192,14.430667088861593
LACS,7.045581561869637,-4.434187401499877
LAE,8.92607504953861,166.27039335895265
LAGHMAN,34.85047064943256,70.16664411743822
LAGHOUAT,33.59897987912873,2.6676586231826307
LAGOS,6.572072297743352,3.349714793590886
LAGUNES,5.824972892525464,-4.329321002143632
LAHIJ_GOVERNORATE,13.205570408395413,44.58451015424872
LAI_CHAU,22.254177454241574,103.24604360626631
LAIKIPIA,0.3102132064219223,36.753288024736406
LAKES,6.601933995779782,29.95848236524394
LAKSHADWEEP,8.27354268101202,73.04917627330083
LAM_DONG,11.72907214712731,108.10949238326354
LAMBAYEQUE,-6.386000414929191,-79.81474886036266
LAMPANG_PROVINCE,18.361804218677054,99.51195555528365
LAMPHUN_PROVINCE,18.080783335291482,98.93192479495616
LAMPUNG,-4.887270776823931,105.00083191010906
LAMU,-2.0540009750595276,40.835563693528485
LANG_SON,21.856591131401135,106.64012963630702
LAO_CAI,22.381527273714294,104.083694591025
LAOIS,52.93483652371798,-7.3179352221105605
LAPLAND,67.7148913580155,26.375055633287
LARA,10.127252116420172,-69.76998571027947
LARNACA,34.92219780039831,33.39253069256597
LAS_TUNAS,21.01016854580109,-77.00935511834918
LATAKIA,35.469057373194204,36.137055336785906
LATGALE_REGION,56.344411066728846,27.18430747350109
LAUTEM,-8.534679301243754,126.91562662623024
LAVALLEJA,-33.95686668259937,-54.97249566208106
LAZIO,41.97620140093645,12.770888255170235
LE_MARIN,14.552693291786438,-60.94710138116247
LE_TRINITE,14.723744240221546,-61.040817062376846
LEBAP_REGION,38.881992569647956,63.18247663608652
LEIRIA,39.69338649239309,-8.787471577814502
LEITRIM,54.14752635655924,-8.000518514207403
LEKOUMOU,-3.0668042090692595,13.527229134056595
LEMPIRA,14.403308160644873,-88.62363685721316
LENINGRAD_OBLAST,59.920562707300014,31.806797984689464
LEON,12.572383812785171,-86.6799765759158
LERIBE_DISTRICT,-28.98243807038693,28.295950036093636
LES_MAMELL,-4.650408704508552,55.47058953433539
LEZHE_COUNTY,41.784768706001614,19.843338927686474
LHAVIYANI,5.4336147214580945,73.62457250687504
LHUNTSE_DISTRICT,27.784090952639946,91.09732249024036
LIAONING,41.30677372817005,122.61654099615942
LIBERECKY_REGION,50.68569482297063,14.9407648058305
LIBERTADOR_GENERAL_BERNARDO_O'HIGGINS,-34.437472062689245,-71.01197926259863
LIGURIA,44.282274932338886,8.650109831090017
LIKA_SENJ,44.71938756675183,15.467402254788162
LIKIEP,10.031570178357597,169.0125714609255
LIKOUALA,1.906099497319115,17.43563501202856
LIMA,-11.789570813555567,-76.65786009432236
LIMASSOL,34.78129099077236,32.944742160737
LIMBURG,51.18885623549234,5.822979964920913
LIMERICK,52.47284733161125,-8.76412061617866
LIMPOPO,-23.785914221900413,29.26252265084562
LINDI,-9.474917896370044,38.34905508514347
LINE_ISLANDS,1.9417536112844822,-157.39984033882206
LIPETSK,52.62857578148038,39.127715914438774
LIQUICA,-8.654447865772697,125.34643357297031
LISBOA,39.014521841728104,-9.205503755459356
LITORAL_PROVINCE,1.5547497055073134,9.822238541222683
LITTLE_CAYMAN,19.688100814819393,-80.0378239949544
LITTORAL,4.2409315562071335,10.103891965340564
LOBAYE,4.113192960558942,17.726929846775427
LOCATION,-0.5244574819925568,166.9128434013999
LODZKIE,51.58109487413822,19.43699283941273
LOEI_PROVINCE,17.36009252621617,101.60311414065747
LOFA,7.990105920122992,-9.924447312171619
LOGAR,33.98543285984547,69.17748546547793
LOGONE_OCCIDENTAL,8.774695625999344,15.88437968734674
LOGONE_ORIENTAL,8.207863562248999,16.37884590547424
LOJA,-4.114814434387846,-79.59707855925969
LOMAMI,-6.206612711859916,24.681642622941954
LOMBARDIA,45.628759008214494,9.765924347768939
LONG_AN,10.741680519216247,106.16156779866324
LONG_ISLAND,23.244800810761284,-75.0797650118482
LONGFORD,53.751826008227155,-7.72798636060427
LOPBURI_PROVINCE,15.076991047371985,100.87370854917424
LORESTAN,33.4615083957706,48.49335301724514
LORETO,-4.139079875996395,-74.4650224913191
LORI,40.95969944011561,44.458698755578695
LOS_LAGOS,-42.057288369866754,-72.89551660174293
LOS_RIOS,-30.06504703465417,-74.38075108635286
LOUGA,15.42660135106421,-15.585651671981687
LOUISIANA,31.09536120513178,-92.00053056381712
LOUTH,53.919132995085604,-6.50192452706869
LOVECH,43.0107633691615,24.590517566272105
LOWER_AUSTRIA,48.227678059738544,15.838943785771843
LOWER_JUBA,0.08067533615410635,41.80720481862667
LOWER_KARTLI,41.48018033533293,44.517486258449566
LOWER_SAXONY,52.75640241028917,9.181956625184666
LOWER_SHEBELLE,1.88974518078385,44.31920853113806
LOWER_UELE,3.6517748393571727,25.121437695297207
LUALABA,-9.810445960750911,23.913567565772787
LUANDA,-9.036511585583657,13.335846128566969
LUANG_NAMTHA,20.91542684640092,101.1747543542681
LUANG_PRABANG,20.134630694419176,102.57046823418156
LUAPULA,-10.641593004587854,29.208096386018212
LUBELSKIE,51.210554179578494,22.855524407736347
LUBOMBO,-26.537235266691248,31.857315116008934
LUBUSKIE,52.16319650177728,15.35037428372884
LUCERNE,47.053919598214385,8.144377473204967
LUHANSK_OBLAST,48.96441654866328,39.003741301342124
LUNDA_NORTE,-8.581408278894575,19.527046648075967
LUNDA_SUL,-10.177865371165268,20.63056018686896
LUSAKA,-15.380123672921071,29.19761134582601
LUXOR_GOVERNATE,25.66095678506263,32.670130644008154
LVIV_OBLAST,49.74098127933817,23.9237650343544
M'SILA,35.340135427102574,4.196041150525402
M'TSANGAMOUJI,-12.753738924769754,45.088864030398085
MA'RIB_GOVERNORATE,15.516163343882548,45.596384881494174
MA'AN,30.342628719346063,36.52532826924394
MACEDONIA_THRACE,40.952018921473524,23.84609746971184
MACHAKOS,-1.2836130848552454,37.43704825592867
MACVA_DISTRICT,44.52132397114231,19.629010236142996
MADABA,31.56582645483403,35.64608888331024
MADANG,-5.170253083093643,145.1827052509635
MADHYA_PRADESH,23.528937364890638,78.28746593349562
MADINAH,24.9113195942667,39.478713618393805
MADRE_DE_DIOS,-11.979934528037075,-70.54399061627004
MADRID,40.49387585413397,-3.723930863913018
MADRIZ,13.437608206901384,-86.50985824842613
MAE_HONG_SON_PROVINCE,18.70320983678908,98.00643320154774
MAEKEL_REGION,15.373644574479007,38.84756849954311
MAFETENG_DISTRICT,-29.77215190376272,27.51032506694625
MAFRAQ,32.42313276288816,37.70939167839819
MAGADAN,62.69168761789852,154.0097216563016
MAGALLANES,-52.28524851179697,-71.53637768670822
MAGDALENA,10.255312664242132,-74.260779027859
MAGWAY,20.404011105047346,94.82783780634647
MAHA_SARAKHAM_PROVINCE,15.96866273787284,103.23776960405304
MAHAICA_BERBICE,6.226901061838983,-57.87375972173635
MAHARASHTRA,19.46531431378277,76.15053113805624
MAHDIA,35.31895162506931,10.649146653126722
MAI_NDOMBE,-2.7358071796032184,18.513520864276718
MAINE,45.337401055125596,-69.25127999403703
MAIO,15.215465419021118,-23.146274396902008
MAJURO,7.062397670263349,171.26247912993477
MAKAMBA,-4.210241495586288,29.82811660667179
MAKIRA_ULAWA_PROVINCE,-10.579701639135028,161.977036577373
MAKKAH,21.64395309859298,41.19665989254905
MAKUENI,-2.22709441261369,37.82895984692695
MALACCA,2.303647587704849,102.3516518037327
MALAITA_PROVINCE,-8.974963625311727,160.9807950522332
MALAMPA,-16.276905309119073,167.50331880679403
MALANJE,-9.530031203550653,17.00179977517241
MALDONADO,-34.54585109781174,-54.8715791947621
MALOELAP,8.897010578064313,170.84368421933124
MALOPOLSKA,49.825387306003805,20.318394572009066
MALUKU,-4.198180388240114,129.4587929049652
MAMBERE_KADEI,4.538064366857114,15.955614629483406
MAMOU,10.64246106213855,-12.037817088481955
MAMOUDZOU,-12.7887739169941,45.19060548449516
MANABI,-0.8411999956502458,-80.19977728422175
MANAGUA,12.220707473007876,-86.26550699562053
MANATUTO,-8.725929292687264,125.97991511338928
MANAWATU_WANGANUI,-39.75893606980189,175.5444574036189
MANCHESTER,18.026016065828284,-77.51173118085114
MANDALAY,21.477265741761506,95.92413717233268
MANDERA,3.4659699527866348,40.754150107679635
MANDOUL,8.65776940710154,17.64483843906522
MANGILAO,13.468599365611752,144.82369106420452
MANGROVE_CAY,24.218881439184802,-77.71720244139937
MANGYSTAU_REGION,44.006650031088235,53.99819139972802
MANICA,-18.998425325607368,33.43890004862769
MANICALAND,-19.069990360871433,32.39244263401847
MANIEMA,-3.0528568834578533,26.377409209580815
MANIPUR,24.745126823461508,93.92955450407554
MANITOBA,54.92819633041567,-97.4153080382586
MANOUBA,36.761151066852136,9.886367982502978
MANSA_KONKO,13.36985951139422,-15.735535658602736
MANUFAHI,-9.00809796026589,125.82053612775503
MANUS,-2.0559453120936433,146.92173901826035
MANYARA,-4.554500817565682,36.537294956518835
MANZINI,-26.496985414912267,31.251380369446238
MAPUTO,-25.481564108063814,32.42381978688112
MARA,-1.7246947237868342,34.13791963251027
MARADI,14.083763802484421,7.2659600286106745
MARAMURES,47.67117542081307,24.015488540499287
MARANHAO,-5.145709485513542,-45.3070061523404
MARCHE,43.354063213132456,13.152882869591226
MARGIBI,6.4693288885215905,-10.292331748348362
MARI_EL,56.56094779436877,48.030983500886514
MARIA_TRINIDAD_SANCHEZ,19.44304399024398,-69.9812061935054
MARIJAMPOLE,54.69269650203741,23.158014383256063
MARITIME_REGION,6.5437809045981306,1.2605763590176324
MARJ,31.990148625092623,21.246919242515528
MARKAZI,34.46855876479373,49.91762770109427
MARLBOROUGH,-41.750206169845185,173.53266033629856
MAROWIJNE,5.634065796613625,-54.392117556322184
MARRAKECH_SAFI,31.74142864288295,-8.445472588274486
MARSABIT,2.9978792706672395,37.56531735427205
MARY_REGION,37.20652956060084,62.2770855889216
MARYLAND,37.1494519669582,-72.9711111568888
MASAYA,11.98157073920312,-86.13222200556201
MASCARA,35.40988716905966,0.12977538878096606
MASERU_DISTRICT,-29.555264886959424,27.861548556914567
MASHONALAND_CENTRAL,-16.71874544322844,31.18943290768291
MASHONALAND_EAST,-18.022678515298658,31.6643114820619
MASHONALAND_WEST,-17.187173072407777,29.709286573139728
MASSACHUSETTS,42.287290427336046,-71.87709874688697
MASVINGO,-20.80813929732357,31.236880545107407
MATABELELAND_NORTH,-18.827159909069245,27.394123768423285
MATABELELAND_SOUTH,-20.97056305198109,28.991146095530723
MATAGALPA_(DEPARTEMENTO),12.917670856088403,-85.67776570765892
MATAM,15.110323573919537,-13.775559193880017
MATANZAS,22.59564593638554,-81.11704357437262
MATO_GROSSO,-12.942944229610664,-55.90782378122578
MATO_GROSSO_DO_SUL,-20.339895104299256,-54.85525458686665
MATROUH,29.735786177080904,26.981096162784407
MATSIATRA_AMBONY,-21.45048667973143,46.567869097574906
MATSU_ISLANDS,26.150138020071363,119.92597298250583
MAULE,-35.58641945491008,-71.44726440084617
MAUREN,47.21761495379671,9.560474273408207
MAYABEQUE,22.873900942415403,-82.00409503086335
MAYAGUANA,22.386890324336164,-73.01027293182506
MAYO,53.90794120295424,-9.333788798508431
MAYO_KEBBI_EST,10.197186915221417,15.565094615066032
MAYO_KEBBI_OUEST,9.310586539921557,14.842581044541546
MAYSAN,31.882767713910063,47.02634195042763
MAZANDARAN,36.3883469567047,52.338683956880935
MAZOWIECKIE,52.38696718137594,21.05757280033501
MBEYA,-8.265383160724253,33.37705756037964
MBOMOU,5.462251554088578,23.336860161228962
MEDIMURJE,46.40332288758859,16.532225078207315
MEATH,53.62794817437368,-6.80765241722803
MECKLENBURG_VORPOMMERN,53.71989724479866,12.421132840741883
MEDEA,36.00916349898473,2.9295841674597183
MEDENINE,33.13377859485063,10.781800311618726
MEGHALAYA,25.5633112577945,91.33052114793297
MEHEDINTI,44.601651103735676,22.76140215791266
MEJIT,10.274084732799555,170.8728097918599
MELAKY,-17.688268182890205,44.831696946392995
MELEKEOK,7.511617448061272,134.60464048189542
MELILLA,35.29160344050838,-2.9570078744760444
MENABE,-20.254640014588087,44.88098986336208
MENDOZA,-34.628038238674755,-68.58274365902713
MERIDA,8.569605923878488,-71.27938694229789
MERIZO,13.27180170869834,144.69076878815548
MERU,0.17016538635666054,37.80121341106049
META,3.354457734236311,-72.92409041035653
MEXICO_CITY,19.24040654088375,-99.15413649774376
MIAOLI_COUNTY,24.5411660619841,120.92510374544244
MICHIGAN,44.85139009836055,-85.7146531256001
MICHOACAN_DE_OCAMPO,19.187759731184663,-101.91491016090605
MICOUD,13.841064185132403,-60.9319632276601
MIDDLE_JUBA,1.2203978750307671,42.53821036450442
MIDDLE_SHEBELLE,3.026117945110572,45.96419690061341
MIDLANDS,-18.90460160622521,29.453831255297157
MIDTJYLLAND,56.25102011426458,9.301437111853398
MIE,34.527051200489154,136.395988522399
MIGORI,-0.9691554389436408,34.37155389584649
MILA,36.27944617900349,6.159305913495345
MILI,6.087050423891014,171.7306676491079
MILNE_BAY,-10.192097172501214,149.93075512322454
MINAS_GERAIS,-18.448535471532868,-44.667241967827465
MINNESOTA,46.33708829698659,-94.22693996091319
MINSK,53.912835536351295,27.567035261321173
MINSK_REGION,53.79814305627015,27.670791614401296
MINYA_GOVERNATE,28.152027502336974,30.62620894618975
MIRANDA,10.256676569962131,-66.31991461200704
MISIONES,-26.866350929226396,-55.18106040296233
MISRATA,31.599575340031286,14.385621036846807
MISSISSIPPI,32.77005953402922,-89.6555150032784
MISSOURI,38.37663152313739,-92.4500214201084
MIYAGI,38.481982294575744,140.8792067920701
MIYAZAKI,32.15432565934413,131.3422059402699
MIZORAM,23.346805241981006,92.82596408761623
MOGLIEV_REGION,53.616997750376,30.4201809614557
MOHALE'S_HOEK_DISTRICT,-30.073864009976596,27.732110351597804
MOHELI,-12.315340910767265,43.74097227416949
MOKA,-20.24632134501201,57.58179177206341
MOKHOTLONG_DISTRICT,-29.18053996509125,29.000271084244126
MOLISE,41.714456246439866,14.58431959392928
MOMBASA,-3.9838881294366955,39.6150979982225
MON,16.28940626475461,97.61021980706542
MONACO,43.73036102812942,7.416616558303037
MONAGAS,9.427300308932015,-63.04086104435123
MONAGHAN,54.018209459874186,-6.871982705279278
MONASTIR,35.60373443729525,10.774662490112942
MONDULKIRI,12.779993634281505,106.95748099832669
MONGALA,2.0723420745179886,21.50593900177863
MONGAR_DISTRICT,27.283495119587048,91.20013091233149
MONGMONG_TOTO_MAITE,13.470229760653408,144.77316831108664
MONO,6.593939173922895,1.8831057555579787
MONSENOR_NOUEL,18.860862789961416,-70.38141855660486
MONT_BUXTO,-4.614263581014314,55.44564142760562
MONT_FLEUR,-4.633984838089815,55.458885002778764
MONTAGNES,6.94461217358669,-7.648239622759864
MONTANA,46.99909064406539,-108.51566676129737
MONTE_CRISTI,19.66181449499329,-71.37067865653894
MONTE_PLATA,18.84954437482831,-69.82843578604106
MONTEGIARDINO,43.91077815574168,12.479692243936034
MONTEVIDEO,-34.81010703252104,-56.26737146651126
MONTSERRADO,6.552080646654195,-10.645194890486879
MONUFIA,30.417448133977363,30.977831872174583
MOORE'S_ISLAND,26.297556327639466,-77.5562627563691
MOPTI,14.721015508477707,-3.533281076412292
MOQUEGUA,-16.878975722588937,-70.85403010191166
MORAVICA_DISTRICT,43.86344406345194,20.350398723893957
MORAVSKOSLEZSKY_REGION,49.80290279273185,17.946451627390257
MORAZAN,13.819631741183253,-88.08686632441692
MORE_OG_ROMSDAL,62.56767484563396,7.813806717364724
MORELOS,18.791768298622582,-99.09224843534666
MOROBE,-6.854039173693096,146.7624772486852
MOROGORO,-7.923205673962382,37.010496147747965
MORONA_SANTIAGO,-2.5665434488086487,-78.00911533468637
MOSCOW,55.638692615802654,37.63952180024847
MOSTAGANEM,35.95849449838629,0.31601998813997517
MOSTEIROS,14.991091266411669,-24.353389892286565
MOUNT_LEBANON_GOVERNORATE,33.88389215134337,35.67826763450884
MOXICO,-12.876360639847068,21.048215005216647
MOYEN_CHARI,9.404158474401228,18.63449202755389
MOYEN_OGOOUE,-0.4183271198999392,10.606185036423165
MPUMALANGA,-25.895733110459993,30.34465208931613
MTSAMBORO,-12.696096738179468,45.080663045247434
MTSKHETA_MTIANETI,42.292157453025716,44.77909663595198
MTWARA,-10.794174722112947,39.08048921006457
MUBARAK_AL_KABEER,29.223717672108705,48.04769640987265
MUCHINGA,-11.29400934879714,31.98007141507598
MUDUG,6.375183869463302,48.149769902722994
MUHARRAQ_GOVERNORATE,26.24780739304503,50.65221228394771
MUKDAHAN_PROVINCE,16.556123701536094,104.52863601426414
MUNICIPIUL_BALTI,47.77507079959101,27.867277807011714
MUNICIPIUL_CHISINAU,47.02897499345182,28.894529045569985
MURAMVYA,-3.244056511385938,29.64152911501248
MURANG`A,-0.8077729056541717,37.039805379528154
MURCIA,37.95830695849389,-1.4209086329130975
MURES,46.591763252380254,24.638930188030333
MURMANSK,67.80055474148496,34.615542594656795
MURQUB,32.49745135286395,13.822977312652831
MURZUQ,24.61708221488424,15.699505459578083
MUSCAT,23.35294964209559,58.5796822208476
MUTHANNA,30.19601694899395,45.35610479717467
MUYINGA,-2.7135552853164815,30.370089127035527
MWANZA,-2.3469953153789413,32.91656585164608
MWARO,-3.4695346924400727,29.67312588133913
MYKOLAIV_OBLAST,47.40231002421122,31.848239276186526
MYMENSINGH,24.849168328549105,90.36776558975542
N'DJAMENA_REGION,12.177936692582167,14.996342676629261
NAAMA,33.305588499138295,-0.7677060362283784
NABATIYEH_GOVERNORATE,33.28518330171018,35.55797431310861
NABEUL,36.617672271176794,10.642627300808728
NAGALAND,26.096560970016977,94.50489024382942
NAGANO,36.14194604495265,138.06141399517057
NAGASAKI,33.006074280746105,129.94873308820092
NAIROBI,-1.3296193124658382,36.88661474942867
NAJAF,31.154903396041274,43.83682447675146
NAJRAN,18.299713385634327,45.8419946617934
NAKHON_NAYOK_PROVINCE,14.214099653295943,101.13297524695686
NAKHON_PATHOM_PROVINCE,13.923918781668416,100.1131499910477
NAKHON_PHANOM_PROVINCE,17.337557912555837,104.46645592045323
NAKHON_RATCHASIMA_PROVINCE,14.941509567356917,102.09606895498193
NAKHON_SAWAN_PROVINCE,15.681224190067795,100.14365261350078
NAKHON_SI_THAMMARAT_PROVINCE,8.376383698264904,99.76891963458156
NAKURU,-0.41484634448866486,36.05727822480955
NALUT,30.352072330846354,10.892005724315187
NAM_DINH,20.256943767023316,106.20915335074882
NAMANGAN_REGION,41.04760023554575,71.26249667209868
NAMDRIK,5.62559527107291,168.13175250294003
NAMIBE,-15.49473501853325,12.737463218432184
NAMPULA,-14.968291381820897,39.253565417550355
NAMU,7.753459629143362,168.24651130608353
NAN_PROVINCE,18.903146381063998,100.80999799762095
NANA_GREBIZI,7.201733984440618,19.33833428716636
NANA_MAMBERE,5.689057078967057,15.347245874109241
NANDI,0.12592410073104496,35.07238665095905
NANGARHAR,34.33302367584921,70.4390899277077
NANTOU_COUNTY,23.850039522877637,120.96025100833616
NAPO,-0.6328265176579192,-77.83693843196463
NARA,34.38505930393827,135.86650361302227
NARATHIWAT_PROVINCE,6.1719849377621445,101.74250145811263
NARINO,1.5411387241244374,-77.83636105242871
NAROK,-1.249023675098846,35.58223500356313
NARYN_REGION,41.393091208573615,75.48262233687339
NASARAWA,8.48111397410318,8.204104389791748
NATIONAL_CAPITAL_DISTRICT,-9.416887520964945,147.21800126182774
NATIONAL_CAPITAL_REGION,14.648546854110807,120.9920063718401
NAVARRA,42.62943186960563,-1.6413620035051926
NAVOIY_REGION,41.92933182897963,64.39914409126908
NAYARIT,21.84695062658413,-104.82698899800934
NAYPYITAW__COUNCIL,19.853480504975963,96.16382516236577
NEAMT,46.95400151306082,26.41368195087937
NEBRASKA,41.531631539935674,-99.79240937442782
NEGERI_SEMBILAN,2.7472619899081177,102.1843849912596
NEGROS_ISLAND_REGION,10.085279949605184,123.0201420678523
NELSON,-41.258785668908736,173.3637475065123
NENETS_AUTONOMOUS_OKRUG,67.79264042133178,54.75227197841227
NEUCHATEL,46.97659970862527,6.775107936143728
NEUQUEN,-38.64801922702551,-70.14630268829113
NEVADA,39.35389017961134,-116.66051171358394
NEW_BRUNSWICK,46.648330837239605,-66.42309757617421
NEW_HAMPSHIRE,43.693839625319,-71.56401592699906
NEW_IRELAND,-3.9191043881878174,152.47568403183396
NEW_JERSEY,40.123326928556175,-74.7122541430455
NEW_MEXICO,34.421836494302106,-106.10277574707926
NEW_SOUTH_WALES,-32.17911816665195,147.0117601562758
NEW_TAIPEI,24.991159118800944,121.58835004911641
NEW_VALLEY,24.86611149361824,28.440176750813613
NEW_YORK,43.001606116668924,-75.72594977666824
NEWFOUNDLAND_AND_LABRADOR,54.283188130667874,-62.008468730670586
NGARAARD,7.618192865548491,134.62223080254597
NGARCHELONG,7.706984728573564,134.62614588116978
NGARDMAU,7.578667727371589,134.57950628976113
NGATPANG,7.457535004594001,134.54091100165854
NGCHESAR,7.45752058099112,134.58593407809323
NGEREMLENGUI,7.524635277947304,134.56200956729788
NGHE_AN,19.26850231174378,104.91248967200768
NGIWAL,7.556647619748291,134.6123704387133
NGOUNIE,-1.6282328105582222,11.188515702813964
NGOZI,-2.8673007590250097,29.92158250576766
NIAMEY,13.525277603750103,2.137543107788541
NIARI,-3.166486897899463,12.477852990248952
NIASSA,-13.072351334692028,36.45367621113334
NIBOK,-0.5168333466220701,166.92197638306698
NICKERIE,5.59928016253663,-56.821594488023635
NICOSIA,35.0993018508762,33.089210632719734
NIDWALDEN,46.91220096764155,8.399293431486367
NIGER,9.911165270975816,5.606265287761117
NIIGATA,37.440374458468305,138.88544321120088
NIMBA,6.823499690278828,-8.789401284457615
NIMROZ,30.78079068391783,62.32753832940307
NINEVEH,35.95719387474937,42.36523788340575
NINGXIA_HUI,37.22437720440852,106.16563055754528
NINH_BINH,20.23713922440292,105.85066914695261
NINH_THUAN,11.737791385430315,108.85082907835077
NISAVA_DISTRICT,43.425313959379146,21.86579203048525
NITRA,48.12492599130385,18.269998843137643
NIUAS,-15.605074252611006,-175.64233907726575
NIZHNY_NOVGOROD,56.29813891828458,44.5983040093943
NJOMBE,-9.442470152811522,34.72588616561349
NOGRAD,47.99166556295622,19.5358257820043
NONG_BUA_LAM_PHU_PROVINCE,17.171762690121973,102.28004349259506
NONG_KHAI_PROVINCE,17.917466161236206,102.83549112295759
NONTHABURI_PROVINCE,13.970223902807735,100.39217083264138
NOORD_BRABANT,51.536486541039366,5.065454574128094
NOORD_HOLLAND,52.49684168015745,4.840447324566007
NORD,13.439644160518196,-2.2012552574349775
NORD_EST_DEPARTMENT,19.46321446908019,-71.88022054297981
NORD_OUEST_DEPARTMENT,19.773402878949806,-72.78805453770458
NORD_UBANGI,3.8534906892977525,21.151721266910098
NORDERERNE,62.247426350000005,-6.566319626666667
NORDJYLLAND,57.118180988899894,9.52151350568629
NORDLAND,66.6349126986721,14.620044849190922
NORMANDIE,49.11769835872445,0.04795750210522753
NORRBOTTEN,66.9451571736899,20.11292259746908
NORTE_DE_SANTANDER,8.147892948932412,-72.8770691502968
NORTH_ABACO,26.738597506254532,-77.41358671554839
NORTH_ANDROS,24.771457212687007,-77.97388160130468
NORTH_BACKA_DISTRICT,45.93126066237531,19.647232522140087
NORTH_BANAT_DISTRICT,45.914133376450124,20.176820647147043
NORTH_CAROLINA,35.54994823535123,-79.34489449586059
NORTH_CARRIBEAN_COAST_AUTONOMOUS_REGION,13.956217700047628,-84.22447147660043
NORTH_CENTRAL_PROVINCE,8.296201831849203,80.57088919992029
NORTH_DAKOTA,47.44889841331603,-100.47733503044168
NORTH_DARFUR_STATE,16.218856530327916,25.550048441834793
NORTH_DISTRICT,32.80174328233865,35.395870300590374
NORTH_EAST_DISTRICT,-21.02187694819086,27.63832160210912
NORTH_EAST_REGION,1.3806568270324475,103.87715892381445
NORTH_ELEUTHERA,25.455350521171436,-76.70598279230305
NORTH_HAMGYONG,41.77852412122477,129.5627642023469
NORTH_KALIMANTAN,2.888515283517012,116.18809224281298
NORTH_KARELIA,62.84988167638537,29.883802305676898
NORTH_KAZAKHSTAN_REGION,53.86589443182166,69.31105221573281
NORTH_KHORASAN,37.37806100754251,57.12356303511316
NORTH_KIVU,-0.6265877210737043,28.673758328048486
NORTH_KORDOFAN_STATE,14.894549548532886,29.733249583227998
NORTH_LEBANON_GOVERNORATE,34.38216956307835,36.009214040333994
NORTH_MALUKU,0.4216434181981064,127.69815879564318
NORTH_OSSETIA-ALANIA,43.12578267069517,44.30721444058019
NORTH_PEMBA,-5.032413900703726,39.78423743160357
NORTH_PYONGAN,40.09497269513207,125.33051174248335
NORTH_REGION,1.3954261295578245,103.80361836234562
NORTH_RHINE_WESTPHALIA,51.50169463569085,7.53252997619153
NORTH_SIDE,19.304869897461106,-81.23575193583737
NORTH_SINAI,30.449930371374208,33.70927581317661
NORTH_SULAWESI,0.8789602108688522,124.21247990144536
NORTH_SUMATRA,2.1984473310118227,99.08310569039496
NORTH_WEST,-26.22991480714271,25.578879890120334
NORTH_WEST_DISTRICT,-19.607474110187113,22.782753035904193
NORTH_WESTERN,-13.051052563033666,25.076311655770034
NORTH_WESTERN_PROVINCE,7.826429739247299,80.0783120468212
NORTHEAST,42.16300093119104,21.986298619872652
NORTHEASTERN_REGION,65.5990865333581,-17.08776430281665
NORTHEN_RED_SEA_REGION,16.099291148664577,39.05264017795051
NORTHERN,0.7861530673803546,14.93246092601874
NORTHERN_BAHR_EL_GHAZAL,8.88923729738639,27.03061918541811
NORTHERN_BORDERS,30.02575357406045,42.04223547640564
NORTHERN_CAPE,-29.460839355549833,21.41409252494695
NORTHERN_GOVERNORATE,26.163166817716508,50.51081742220723
NORTHERN_IRELAND,54.58721975069124,-6.784012993666194
NORTHERN_ISLANDS,18.123439153035537,145.7769419352214
NORTHERN_OSTROBOTHNIA,64.88502173791007,26.50408199524361
NORTHERN_PROVINCE,5.76594602585765,64.66694425375115
NORTHERN_REGION,-2.5446597620207756,33.3583575874246
NORTHERN_SAVONIA,63.13641901272194,27.468005468133686
NORTHERN_STATE,19.594681580314365,29.36198238974289
NORTHERN_TERRITORY,-19.448278075295086,133.35248058869107
NORTHLAND,-35.56759088716669,173.87533955230643
NORTHWEST,6.385414343264598,10.35697240409308
NORTHWEST_TERRITORIES,66.28107235370278,-119.02937958068003
NORTHWESTERN_REGION,65.3348071855241,-19.716847747906936
NOUAKCHOTT,18.086419623000793,-15.979543582093422
NOUVELLE_AQUITAINE,45.21479634541678,0.19439998819872584
NOVA_SCOTIA,45.1114038576703,-63.3837590857512
NOVGOROD,58.3335596540929,32.53563091589324
NOVOSIBIRSK,55.27953700001752,79.70179344240744
NUBLE,-36.65323675817185,-71.95834843409583
NUEVA_ESPARTA,10.974030920375322,-64.13497807512195
NUEVA_SEGOVIA,13.687964127587934,-86.24623356432002
NUEVO_LEON,25.573811587650123,-99.9549868751255
NUGAAL,8.088135352635325,48.944551628569236
NUI,-7.250937097673879,177.16255358753887
NUKUFETAU,-8.065987236046665,178.37513440302232
NUNAVUT,71.09465543813869,-88.58264853755121
NUQAT_AL_KHAMS,32.68748848459952,11.883795604683264
NURISTAN,35.40729787896705,70.78992867186722
NYAMIRA,-0.6108041624361812,34.9795333559346
NYANDARUA,-0.4341924915989851,36.532364311970746
NYANGA,-3.034134362922133,11.022854039822224
NYERI,-0.34127638317893283,36.97258121574181
NZEREKORE,8.425756727067862,-8.826137281969151
OAXACA,16.97980713540401,-96.4323334310154
OBALNOKRASKA,45.66518064383693,13.926951777919527
OBOCK,12.256624380087809,43.06000656105205
OBWALDEN,46.84529576674792,8.232275723137512
OCCITANIE,43.7088985319567,2.150293606637934
OCOTEPEQUE,14.473910663088704,-89.0605302622173
ODDAR_MEANCHEY,14.134247080247201,103.81050451682479
ODESSA_OBLAST,46.76964509858536,29.863824925931855
ODISHA,20.490575391542908,84.38798425887958
OECUSSE,-9.341433998573676,124.29691459390071
OFFALY,53.21896351567704,-7.574680258765803
OGOOUE_IVINDO,0.4759998807363111,12.853266678804783
OGOOUE_LOLO,-0.8539775781133908,12.635537752165312
OGOOUE_MARITIME,-1.517793148240562,9.624091411579885
OGUN,6.967905706334773,3.5214199101444126
OHANGWENA_REGION,-17.551581433833693,16.850057500163413
OHIO,40.43187718918655,-82.71760249768661
OIO,12.250490220634466,-15.264470550765004
OITA,33.200951134795034,131.4093798708699
OKAYAMA,34.94685634442597,133.82547970465876
OKINAWA,26.61891960985355,128.09066071951577
OKLAHOMA,35.57071539353066,-97.49532790034806
OLANCHO,14.829111413394578,-85.91382138730611
OLOMOUC_REGION,49.79518026059417,17.186526210069133
OLT,44.23468599327498,24.39286267130707
OMAHEKE_REGION,-21.920824084973287,19.499850061380325
OMBELLA_M'POKO,5.139332684632357,17.90760452071446
OMNOGOVI,43.24982275237755,104.12698756193855
OMSK,56.09295227166895,73.3096625565094
OMUSATI_REGION,-18.24292964377735,14.930030539235512
ONDO,6.861671232323052,5.150839285360473
ONTARIO,50.06298179965716,-85.8452972004955
OPOLSKIE,50.66374930033194,17.84475816726732
ORAN,35.59582879048798,-0.5961759678783921
ORANGE_WALK,17.78958634608804,-88.7746058661218
ORDINO,42.60305129065807,1.5354123820273415
OREBRO,59.3401935709289,14.969564741634075
OREGON,43.92702337383528,-120.55232068332279
ORELLANA,-0.8124658218622209,-76.37460699042659
ORENBURG,51.99185208720766,55.666693367419384
ORIENTAL,33.560645413639755,-2.6184530784024203
ORKHON,48.995428102251516,104.29066757980225
ORO,-8.973138982110742,148.2701311226659
OROMIA,7.499437940072779,38.8076237127079
ORURO,-18.63035508296022,-67.69576549223662
ORYOL,52.82452429607685,36.424565230450895
OSAKA,34.608676763856955,135.4754921775481
OSH_REGION,40.13318562655125,73.18494612771072
OSHANA_REGION,-18.486905410584825,15.754886766997368
OSHIKOTO_REGION,-18.548602809720983,16.990155339129764
OSIJEK_BARANJA,45.5656388563718,18.4178117201179
OSLO,59.995015917629225,10.675634292445412
OSREDNJESLOVENSKA,46.0493684505993,14.58732929712038
OSTERGOTLAND,58.33554529392084,15.667516429605481
OSTROBOTHNIA,62.999680308430875,22.15047368836042
OSUN,7.572740241665582,4.553845798775849
OTAGO,-45.239496355210704,169.48905560927844
OTHER_ISLANDS,18.353378931681352,-64.58754475911455
OTJOZONDJUPA_REGION,-20.299800309615744,18.180905045456072
OUADDAI,13.503718916230287,21.145230396238855
OUAKA,6.12728662874098,20.663001667722945
OUANGANI,-12.835534476379165,45.13984378055388
OUARGLA,31.103756237793206,6.105027767101729
OUDOMXAY,20.441270713162968,101.71181703316816
OUEME,6.665580002163008,2.541158301763398
OUHAM,6.95498102606487,17.91667764623293
OUHAM_PENDE,6.705689413655276,16.146382002141596
OUM_EL_BOUAGHI,35.85789790403873,7.036299511925056
OUTER_ISLA,-9.456053013663825,46.379831390465014
OVERIJSSEL,52.50368670954419,6.397837809097786
OVORKHANGAI,45.83692651482199,102.73663169989744
OYO,8.144321032767099,3.6181181470178365
PAGET,32.28246267939353,-64.77833996541459
PAHANG,3.74101302254093,102.54678537593811
PAIJAT_HAME,61.17104187719521,25.74253213549992
PAILIN,12.798662972106175,102.50354546258353
PAKTIKA,32.4761783171671,68.76062771958154
PAKTYA,33.624264295822044,69.41901821096465
PALAULI,-13.689062960054537,-172.43816007000672
PAMANDZI,-12.798308690388978,45.28436660766607
PAMPLEMOUSSES,-20.118587908480396,57.57209955288998
PANDO,-11.114772657934159,-67.36163185176723
PANEVEZYS,55.92447881503816,24.78075137738332
PANJSHER,35.441372370918415,69.78154563464079
PAPHOS,34.910722091339046,32.66342498461821
PAPUA,-4.6387365088419985,138.69197773530104
PARA,-3.987335336000185,-53.163741365948034
PARAGUARI,-26.044686150752725,-57.09853050712273
PARAIBA,-7.131527180280626,-36.79514881201262
PARAMARIBO,5.8589715290303195,-55.169679236542244
PARANA,-24.65723160546054,-51.62389978811259
PARDUBICKY_REGION,49.90189778612776,16.2428252666268
PARNU_MAAKOND,58.363254746959285,24.520844534345677
PARO_DISTRICT,27.443680163487002,89.32586602790364
PARWAN,34.97900256920545,68.86129055232118
PASCO,-10.40314071325511,-75.27857510179481
PASTAZA,-1.7009109960326252,-76.94493061331639
PATHUM_THANI_PROVINCE,14.089371198482437,100.70731256445538
PATTANI_PROVINCE,6.674043067668654,101.32011852030573
PAUL,17.11121362324711,-25.020747917493775
PAVLODAR_REGION,52.05212853811558,76.1831658206256
PAYS_DE_LA_LOIRE,47.49699700062549,-0.8408511365563806
PAYSANDU,-32.07990984311832,-57.352486817594176
PAZARDZHIK,42.107644835596965,24.16602017966952
PCINJA_DISTRICT,42.52344017751628,22.060556497191996
PEDERNALES,18.048048243295078,-71.5350735165558
PELAGONIA,41.15846982039557,21.400839392084613
PELELIU,7.004834255170429,134.24137905260244
PELOPONISOS_W._GREECE_&_IONIAN,37.7784767707012,22.055384019328486
PEMAGATSHEL_DISTRICT,27.04119925175699,91.35174395404356
PENAL_DEBE,10.15681831051687,-61.46191493327481
PENAMA,-15.803060454197333,168.2076438194859
PENANG,5.2787994204012305,100.41076635968109
PENGHU,23.57251625765847,119.61333877806477
PENNSYLVANIA,40.89956615415986,-77.8282821636466
PENZA,53.14908949555453,44.6102409289933
PERAK,4.837774978301747,101.09009856866048
PERAVIA,18.34156581855397,-70.38355320530533
PERLIS,6.497546437216265,100.2357376732201
PERM_KRAI,59.13677594661005,56.21426985450098
PERNAMBUCO,-8.32598298602619,-38.03312119228027
PERNIK,42.65335668296945,22.847417278177193
PEST_MEGYE,47.42883978744897,19.302173327680865
PETEN,16.968925290451548,-90.01713819452316
PHANGNGA_PROVINCE,8.727575728946615,98.48499099058014
PHATTHALUNG_PROVINCE,7.495860709219798,100.08149501960688
PHAYAO_PROVINCE,19.275132764566088,100.15459616672888
PHETCHABUN_PROVINCE,16.152608517018248,101.11694150745119
PHETCHABURI_PROVINCE,12.96091040480795,99.63616835564765
PHICHIT_PROVINCE,16.190823052857226,100.36992494726438
PHITSANULOK_PROVINCE,16.970117957045726,100.52044004543488
PHNOM_PENH,11.583882333936426,104.90370295238573
PHOENIX_ISLANDS,1.358367336821726,173.06874084469524
PHONGSALY,21.66684951606371,102.27594253206966
PHRA_NAKHON_SI_AYUTTHAYA_PROVINCE,14.371462257965094,100.48718075425481
PHRAE_PROVINCE,18.22956649030775,100.04467328515909
PHU_THO,21.328402380550905,105.13146575331061
PHU_YEN,13.16919225192703,109.04586330906454
PHUKET_PROVINCE,8.01484368965757,98.34386073191963
PIAUI,-7.38085986166707,-42.961518809430444
